센터이름,상세주소,주소,위도,경도
세종로119안전센터,서울특별시 종로구 율곡로 78(운니동 114-2),서울특별시 종로구 율곡로 78(운니동,0,0
신교119안전센터,서울특별시 종로구 자하문로 93 (신교동),서울특별시 종로구 자하문로 93,37.5843269,126.9700319
종로119안전센터,서울특별시 종로구 돈화문로 30 (묘동),서울특별시 종로구 돈화문로 30,37.5695762,126.9922873
연건119안전센터,서울특별시 종로구 대학로 91 (연건동),서울특별시 종로구 대학로 91,37.57919165,127.0018084
신영119안전센터,서울특별시 종로구 진흥로 477 (신영동),서울특별시 종로구 진흥로 477,37.6085078,126.9555338
숭인119안전센터,서울특별시 종로구 숭인동길 63 (숭인동),서울특별시 종로구 숭인동길 63,37.5760493,127.0217865
을지로119안전센터,서울특별시 중구 을지로45길 43(신당동),서울특별시 중구 을지로45길 43(신당동),0,0
무학119안전센터,서울특별시 중구 퇴계로 394 (무학동),서울특별시 중구 퇴계로 394,37.5649203,127.0154061
충무로119안전센터,서울특별시 중구 충무로 11(충무로3가),서울특별시 중구 충무로 11(충무로3가),0,0
회현119안전센터,서울특별시 중구 소공로 30(회현동2가),서울특별시 중구 소공로 30(회현동2가),0,0
신당119안전센터,서울특별시 중구 다산로8길 2(신당동),서울특별시 중구 다산로8길 2(신당동),37.5529772,127.0096343
구의119안전센터,서울특별시 광진구 광나루로 480 (구의동),서울특별시 광진구 광나루로 480,37.5448355,127.082865
능동119안전센터,서울특별시 광진구 능동로 242 (능동),서울특별시 광진구 능동로 242,37.5340314,127.0678046
중곡119안전센터,서울특별시 광진구 용마산로 150 (중곡동),서울특별시 광진구 용마산로 150,37.5678699,127.0861846
한강로119안전센터,서울특별시 용산구 한강대로 167 (한강로2가),서울특별시 용산구 한강대로 167,37.5447751,126.9719446
이태원119안전센터,서울특별시 용산구 이태원로 196 (이태원동),서울특별시 용산구 이태원로 196,37.5344928,126.9944907
후암119안전센터,서울특별시 용산구 후암로 34 (후암동),서울특별시 용산구 후암로 34,37.5534973,126.9747543
이촌119안전센터,서울특별시 용산구 이촌로2가길 1 (이촌동),서울특별시 용산구 이촌로2가길 1,37.5284646,126.9534976
서빙고119안전센터,서울특별시 용산구 서빙고로67길 7 (서빙고동),서울특별시 용산구 서빙고로67길 7,37.5226318,126.9943294
장안119안전센터,서울특별시 동대문구 장한로 34 (장안동),서울특별시 동대문구 장한로 34,37.5787324,127.0722115
청량리119안전센터,서울특별시 동대문구 왕산로 299 (청량리동),서울특별시 동대문구 왕산로 299,37.5772562,127.0286205
전농119안전센터,서울특별시 동대문구 황물로 3 (전농동),서울특별시 동대문구 황물로 3,37.5763315,127.0460351
용두119안전센터,서울특별시 동대문구 왕산로 76 (용두동),서울특별시 동대문구 왕산로 76,37.5772562,127.0286205
휘경119안전센터,서울특별시 동대문구 망우로 106 (휘경동),서울특별시 동대문구 망우로 106,37.5907012,127.0651693
영등포119안전센터,서울특별시 영등포구 문래로 197 (영등포동4가),서울특별시 영등포구 문래로 197,37.5183029,126.9034752
여의도119안전센터,서울특별시 영등포구 의사당대로 162 (여의도동),서울특별시 영등포구 의사당대로 162,37.5242788,126.9219406
당산119안전센터,서울특별시 영등포구 양평로 70-1 (당산동6가),서울특별시 영등포구 양평로 70-1,37.534826,126.9000655
대림119안전센터,서울특별시 영등포구 도림로 212 (신길동),서울특별시 영등포구 도림로 212,37.5000592,126.9056685
신길119안전센터,서울특별시 영등포구 영등포로84길 31 (신길동),서울특별시 영등포구 영등포로84길 31,37.5110301,126.9219823
종암119안전센터,서울특별시 성북구 종암로27길 3 (종암동),서울특별시 성북구 종암로27길 3,37.6016104,127.0281382
돈암119안전센터,서울특별시 성북구 보문로 192 (삼선동4가),서울특별시 성북구 보문로 192,37.5818506,127.0212579
길음119안전센터,서울특별시 성북구 정릉로 321 (길음동),서울특별시 성북구 정릉로 321,37.6042302,127.0267498
장위119안전센터,서울특별시 성북구 한천로 640 (장위동),서울특별시 성북구 한천로 640,37.6218796,127.0518597
진관119안전센터,서울특별시 은평구 통일로 962 (진관동),서울특별시 은평구 통일로 962,37.62867155,126.9197965
녹번119안전센터,서울특별시 은평구 은평로 245 (녹번동),서울특별시 은평구 은평로 245,37.599088,126.9159238
역촌119안전센터,서울특별시 은평구 갈현로 80 (역촌동),서울특별시 은평구 갈현로 80,37.6032751,126.9104102
수색119안전센터,서울특별시 은평구 수색로 320 (수색동),서울특별시 은평구 수색로 320,37.5774108,126.9026094
삼성119안전센터,서울특별시 강남구 테헤란로 629 (삼성동),서울특별시 강남구 테헤란로 629,37.51035425,127.0668818
영동119안전센터,서울특별시 강남구 도산대로 320 (논현동),서울특별시 강남구 도산대로 320,37.524951,127.0540527
역삼119안전센터,서울특별시 강남구 역삼로 236 (역삼동),서울특별시 강남구 역삼로 236,37.4985382,127.0447277
수서119안전센터,서울특별시 강남구 광평로31길 6 (수서동),서울특별시 강남구 광평로31길 6,37.485454,127.089687
개포119안전센터,서울특별시 강남구 논현로 10길 19 (개포동),서울특별시 강남구 논현로 10길,0,0
세곡119안전센터,서울특별시 강남구 밤고개로 268 (율현동),서울특별시 강남구 밤고개로 268,37.4649875,127.1083055
반포119안전센터,서울특별시 서초구 사평대로 67 (반포동),서울특별시 서초구 사평대로 67,37.5030582,127.0199592
방배119안전센터,서울특별시 서초구 남부순환로 2155 (방배동),서울특별시 서초구 남부순환로 2155,37.4738296,126.9935686
양재119안전센터,서울특별시 서초구 동산로 9 (양재동),서울특별시 서초구 동산로 9,37.4696368,127.0414121
서초119안전센터,서울특별시 서초구 효령로 400 (서초동),서울특별시 서초구 효령로 400,37.4880529,127.026779
잠원119안전센터,서울특별시 서초구 서초중앙로29길 6 (반포동),서울특별시 서초구 서초중앙로29길 6,37.4987971,127.0105465
우면119안전센터,서울특별시 서초구 남부순환로340길 49 (서초동),서울특별시 서초구 남부순환로340길 49,37.4808093,127.0226798
등촌119안전센터,서울특별시 강서구 양천로 550 (등촌동),서울특별시 강서구 양천로 550,37.5488695,126.8781594
화곡119안전센터,서울특별시 강서구 까치산로 49 (화곡동),서울특별시 강서구 까치산로 49,37.5436462,126.8451928
발산119안전센터,서울특별시 강서구 강서로 329 (내발산동),서울특별시 강서구 강서로 329,37.555264,126.8369283
방화119안전센터,서울특별시 강서구 금낭화로26길 10 (방화동),서울특별시 강서구 금낭화로26길 10,37.5799342,126.8154457
개화119안전센터,서울특별시 강서구 개화동로19길 8 (개화동),서울특별시 강서구 개화동로19길 8,37.5752407,126.8033115
마곡119안전센터,서울특별시 강서구 마곡서로 9 (마곡동),서울특별시 강서구 마곡서로 9,37.5646888,126.8244827
성내119안전센터,서울특별시 강동구 성내로 39 (성내동),서울특별시 강동구 성내로 39,37.52893,127.12503
천호119안전센터,서울특별시 강동구 진황도로 37 (천호동),서울특별시 강동구 진황도로 37,37.527768,127.1441185
고덕119안전센터,서울특별시 강동구 양재대로156길 133 (고덕동),서울특별시 강동구 양재대로156길 133,37.5563113,127.1487911
암사119안전센터,서울특별시 강동구 올림픽로 815 (암사동),서울특별시 강동구 올림픽로 815,37.5314739,127.120885
길동119안전센터,서울특별시 강동구 천중로 215 (길동),서울특별시 강동구 천중로 215,37.5408198,127.1441083
강일119안전센터,서울특별시 강동구 고덕로98길 22 (강일동),서울특별시 강동구 고덕로98길 22,37.55734505,127.1797126
신수119안전센터,서울특별시 마포구 창전로 76 (신수동),서울특별시 마포구 창전로 76,37.5450919,126.9313447
염리119안전센터,서울특별시 마포구 토정로 37길 27 (염리동),서울특별시 마포구 토정로 37길,0,0
서교119안전센터,서울특별시 마포구 양화로 60 (서교동),서울특별시 마포구 양화로 60,37.5493865,126.9135335
성산119안전센터,서울특별시 마포구 월드컵북로 240 (성산동),서울특별시 마포구 월드컵북로 240,37.5668778,126.9103413
공덕119안전센터,서울특별시 마포구 만리재옛길 82 (공덕동),서울특별시 마포구 만리재옛길 82,37.5462915,126.9556926
상암119안전센터,서울특별시 마포구 월드컵북로 42길 34 (상암동),서울특별시 마포구 월드컵북로 42길,0,0
방학119안전센터,서울특별시 도봉구 도봉로 666 (방학동),서울특별시 도봉구 도봉로 666,37.6641149,127.0430471
도봉119안전센터,서울특별시 도봉구 도봉로 721 (방학동),서울특별시 도봉구 도봉로 721,37.6620125,127.042384
창동119안전센터,서울특별시 도봉구 해등로 25 (창동),서울특별시 도봉구 해등로 25,37.6580186,127.0329046
쌍문119안전센터,서울특별시 도봉구 노해로 152 (쌍문동),서울특별시 도봉구 노해로 152,37.6511525,127.0453491
수궁119안전센터,서울특별시 구로구 오리로 1285 (궁동),서울특별시 구로구 오리로 1285,37.4819986,126.8454005
고일119안전센터,서울특별시 구로구 경인로 408 (고척동),서울특별시 구로구 경인로 408,37.5044962,126.8818819
고척119안전센터,서울특별시 구로구 고척로 195 (고척동),서울특별시 구로구 고척로 195,37.5040205,126.852967
구로119안전센터,서울특별시 구로구 구로동로 175 (구로동),서울특별시 구로구 구로동로 175,37.4943056,126.8829728
신도림119안전센터,서울특별시 구로구 경인로59길 57 (신도림동),서울특별시 구로구 경인로59길 57,37.5071639,126.8819096
공단119안전센터,서울특별시 구로구 디지털로34길 56 (구로동),서울특별시 구로구 디지털로34길 56,37.48425395,126.8984938
하계119안전센터,서울특별시 노원구 한글비석로1길 8 (하계동),서울특별시 노원구 한글비석로1길 8,37.63850185,127.070962
상계119안전센터,서울특별시 노원구 노원로26길 111 (상계동),서울특별시 노원구 노원로26길 111,37.654195,127.0717057
공릉119안전센터,서울특별시 노원구 화랑로 482 (공릉동),서울특별시 노원구 화랑로 482,37.6318139,127.1006286
월계119안전센터,서울특별시 노원구 월계로 323 (월계동),서울특별시 노원구 월계로 323,37.63186,127.0617
수락119안전센터,서울특별시 노원구 동일로 1694 (상계동),서울특별시 노원구 동일로 1694,37.6242653,127.0734496
관악119안전센터,서울특별시 관악구 관악로 97 (봉천동),서울특별시 관악구 관악로 97,37.4673034,126.9494116
봉천119안전센터,서울특별시 관악구 은천로 54 (봉천동),서울특별시 관악구 은천로 54,37.4868596,126.9477174
신림119안전센터,서울특별시 관악구 봉천로 202 (신림동),서울특별시 관악구 봉천로 202,37.4833952,126.94234
난곡119안전센터,서울특별시 관악구 난곡로 243 (신림동),서울특별시 관악구 난곡로 243,37.4683168,126.9201938
마천119안전센터,서울특별시 송파구 오금로51길 56 (마천동),서울특별시 송파구 오금로51길 56,37.4974155,127.1410704
거여119안전센터,서울특별시 송파구 마천로 329 (마천동),서울특별시 송파구 마천로 329,37.49418535,127.1518655
방이119안전센터,서울특별시 송파구 강동대로 286 (방이동),서울특별시 송파구 강동대로 286,37.5273873,127.111941
잠실119안전센터,서울특별시 송파구 석촌호수로 151 (잠실동),서울특별시 송파구 석촌호수로 151,37.5080571,127.1029546
종합운동장119안전센터,서울특별시 송파구 올림픽로 25 (잠실동),서울특별시 송파구 올림픽로 25,37.51502615,127.0737253
가락119안전센터,서울특별시 송파구 양재대로 932 (가락동),서울특별시 송파구 양재대로 932,37.4964535,127.1134771
양천119안전센터,서울특별시 양천구 목동서로 180 (목동),서울특별시 양천구 목동서로 180,37.5387016,126.884416
신정119안전센터,서울특별시 양천구 신월로 268 (신정동),서울특별시 양천구 신월로 268,37.5137896,126.8269819
목동119안전센터,서울특별시 양천구 안양천로 1139 (목동),서울특별시 양천구 안양천로 1139,37.5426318,126.8835107
신월119안전센터,서울특별시 양천구 남부순환로 448 (신월동),서울특별시 양천구 남부순환로 448,37.5164721,126.8397705
신트리119안전센터,서울특별시 양천구 신정로 238 (신정동),서울특별시 양천구 신정로 238,37.5065557,126.8333583
신내119안전센터,서울특별시 중랑구 신내로 183 (신내동),서울특별시 중랑구 신내로 183,37.6168957,127.0922977
면목119안전센터,서울특별시 중랑구 동일로 475 (면목동),서울특별시 중랑구 동일로 475,37.6028782,127.0787253
망우119안전센터,서울특별시 중랑구 용마산로 524 (망우동),서울특별시 중랑구 용마산로 524,37.5976998,127.1006364
중화119안전센터,서울특별시 중랑구 동일로 783 (중화동),서울특별시 중랑구 동일로 783,37.6004368,127.0792971
동작119안전센터,서울특별시 동작구 여의대방로16길 55 (신대방동),서울특별시 동작구 여의대방로16길 55,37.4958516,126.9166439
노량진119안전센터,서울특별시 동작구 노량진로 187 (노량진동),서울특별시 동작구 노량진로 187,37.5127724,126.9524964
상도119안전센터,서울특별시 동작구 국사봉1길 17 (상도동),서울특별시 동작구 국사봉1길 17,37.4989724,126.9299617
백운119안전센터,서울특별시 동작구 사당로 63 (상도동),서울특별시 동작구 사당로 63,37.4947705,126.9608522
연희119안전센터,서울특별시 서대문구 연희로 182 (연희동),서울특별시 서대문구 연희로 182,37.5661095,126.9296422
북가좌119안전센터,서울특별시 서대문구 증가로 242 (북가좌동),서울특별시 서대문구 증가로 242,37.5705757,126.9305063
홍은119안전센터,서울특별시 서대문구 홍은중앙로 83 (홍은동),서울특별시 서대문구 홍은중앙로 83,37.5926203,126.9448195
북아현119안전센터,서울특별시 서대문구 북아현로 37 (북아현동),서울특별시 서대문구 북아현로 37,37.5657789,126.9512727
번동119안전센터,서울특별시 강북구 한천로 911 (번동),서울특별시 강북구 한천로 911,37.62518,127.04868
우이119안전센터,서울특별시 강북구 삼각산로 111 (수유동),서울특별시 강북구 삼각산로 111,37.6401397,127.015299
미아119안전센터,서울특별시 강북구 도봉로 125 (미아동),서울특별시 강북구 도봉로 125,37.6410017,127.0289955
삼각산119안전센터,서울특별시 강북구 솔샘로 208 (미아동),서울특별시 강북구 솔샘로 208,37.6198711,127.015538
행당119안전센터,서울특별시 성동구 살곶이길 331(행당동),서울특별시 성동구 살곶이길 331(행당동),0,0
성수119안전센터,서울특별시 성동구 뚝섬로 452(성수동2가),서울특별시 성동구 뚝섬로 452(성수동2가),0,0
왕십리119안전센터,서울특별시 성동구 고산자로 249(도선동),서울특별시 성동구 고산자로 249(도선동),0,0
금호119안전센터,서울특별시 성동구 난계로 19(금호동1가),서울특별시 성동구 난계로 19(금호동1가),0,0
시흥119안전센터,서울특별시 금천구 시흥대로45길 31 시흥119안전센터,서울특별시 금천구 시흥대로45길 31,37.4484875,126.9002379
금천119안전센터,서울특별시 금천구 시흥대로 342(독산2동),서울특별시 금천구 시흥대로 342(독산2동),0,0
중앙119안전센터,부산광역시 중구 중앙대로 110(중앙동4가),부산광역시 중구 중앙대로 110(중앙동4가),0,0
부민119안전센터,부산광역시 서구 임시수도기념로 21-4(부민동3가),부산광역시 서구 임시수도기념로 21-4(부민동3가),0,0
충무119안전센터,부산광역시 서구 충무대로 186(남부민동),부산광역시 서구 충무대로 186(남부민동),0,0
창선119안전센터,부산광역시 중구 대청로 68-1(부평동1가),부산광역시 중구 대청로 68-1(부평동1가),0,0
초량119안전센터,부산광역시 동구 중앙대로 260번길 7(초량동),부산광역시 동구 중앙대로 260번길,0,0
부전119안전센터,부산광역시 부산진구 서전로 43(전포동),부산광역시 부산진구 서전로 43(전포동),0,0
범일119안전센터,부산광역시 동구 범일로 115(범일동),부산광역시 동구 범일로 115(범일동),0,0
수정119안전센터,부산광역시 동구 중앙대로 383-1(수정동),부산광역시 동구 중앙대로 383-1(수정동),0,0
가야119안전센터,부산광역시 부산진구 가야대로 627(가야동),부산광역시 부산진구 가야대로 627(가야동),0,0
부암119안전센터,부산광역시 부산진구 신천대로 282(부암동),부산광역시 부산진구 신천대로 282(부암동),0,0
당감119안전센터,부산광역시 부산진구 백양산로53번길 65(당감동),부산광역시 부산진구 백양산로53번길 65(당감동),0,0
안창119안전센터,부산광역시 동구 안창로 62(범일동),부산광역시 동구 안창로 62(범일동),0,0
연산119안전센터,부산광역시 연제구 고분로 216(연산동),부산광역시 연제구 고분로 216(연산동),35.1843174,129.1054987
수안119안전센터,부산광역시 동래구 명륜로45번길 7(수안동),부산광역시 동래구 명륜로45번길 7(수안동),0,0
온천119안전센터,부산광역시 동래구 우장춘로 196(온천동),부산광역시 동래구 우장춘로 196(온천동),0,0
양정119안전센터,부산광역시 부산진구 연수로 44(양정동),부산광역시 부산진구 연수로 44(양정동),0,0
사직119안전센터,부산광역시 동래구 체육공원로 74(사직동),부산광역시 동래구 체육공원로 74(사직동),0,0
삼락119안전센터,부산광역시 사상구 삼덕로 17(삼락동),부산광역시 사상구 삼덕로 17(삼락동),0,0
감전119안전센터,부산광역시 사상구 가야대로 41(감전동),부산광역시 사상구 가야대로 41(감전동),0,0
구포119안전센터,부산광역시 북구 만덕대로 31(덕천동),부산광역시 북구 만덕대로 31(덕천동),0,0
화명119안전센터,부산광역시 북구 금곡대로 184(화명동),부산광역시 북구 금곡대로 184(화명동),0,0
주례119안전센터,부산광역시 사상구 양지로22번길 7(주례동),부산광역시 사상구 양지로22번길 7(주례동),0,0
모라119안전센터,부산광역시 사상구 백양대로 950(모라동),부산광역시 사상구 백양대로 950(모라동),0,0
학장119안전센터,부산광역시 사상구 학감대로 89(학장동),부산광역시 사상구 학감대로 89(학장동),0,0
금곡119안전센터,부산광역시 북구 금곡대로616번길 151(금곡동),부산광역시 북구 금곡대로616번길 151(금곡동),0,0
만덕119안전센터,부산광역시 북구 함박봉로 142(만덕동),부산광역시 북구 함박봉로 142(만덕동),0,0
신평119안전센터,부산광역시 사하구 장평로 270(신평동),부산광역시 사하구 장평로 270(신평동),0,0
괴정119안전센터,부산광역시 사하구 낙동대로 262(괴정동),부산광역시 사하구 낙동대로 262(괴정동),0,0
하단119안전센터,부산광역시 사하구 낙동남로 1407(하단동),부산광역시 사하구 낙동남로 1407(하단동),0,0
다대119안전센터,부산광역시 사하구 다대로 622(다대동),부산광역시 사하구 다대로 622(다대동),0,0
감천119안전센터,부산광역시 사하구 원양로 405(감천동),부산광역시 사하구 원양로 405(감천동),0,0
우동119안전센터,부산광역시 해운대구 해운대해변로 106(우동),부산광역시 해운대구 해운대해변로 106(우동),0,0
중동119안전센터,부산광역시 해운대구 달맞이길 117번길 72(중동),부산광역시 해운대구 달맞이길 117번길,0,0
반여119안전센터,부산광역시 해운대구 선수촌로 21번길 64(반여동),부산광역시 해운대구 선수촌로 21번길,0,0
센텀119안전센터,부산광역시 해운대구 센텀동로 50(우동),부산광역시 해운대구 센텀동로 50(우동),0,0
좌동119안전센터,부산광역시 해운대구 대천로67번길 35(좌동),부산광역시 해운대구 대천로67번길 35(좌동),35.1736553,129.166428
반송119안전센터,부산광역시 해운대구 아랫반송로 10(반송동),부산광역시 해운대구 아랫반송로 10(반송동),0,0
부곡119안전센터,부산광역시 금정구 중앙대로 1789(부곡동),부산광역시 금정구 중앙대로 1789(부곡동),0,0
서동119안전센터,부산광역시 동래구 반송로 331(명장동),부산광역시 동래구 반송로 331(명장동),0,0
남산119안전센터,부산광역시 금정구 두실로 46(남산동),부산광역시 금정구 두실로 46(남산동),0,0
산성119안전센터,부산광역시 금정구 산성로 396(금성동),부산광역시 금정구 산성로 396(금성동),0,0
광안119안전센터,부산광역시 수영구 광일로 64(광안동),부산광역시 수영구 광일로 64(광안동),0,0
감만119안전센터,부산광역시 남구 우암로 81(감만동),부산광역시 남구 우암로 81(감만동),0,0
대연119안전센터,부산광역시 남구 수영로 279(대연동),부산광역시 남구 수영로 279(대연동),0,0
망미119안전센터,부산광역시 수영구 연수로 330(망미동),부산광역시 수영구 연수로 330(망미동),0,0
용당119안전센터,부산광역시 남구 신선로 398(용당동),부산광역시 남구 신선로 398(용당동),0,0
녹산119안전센터,부산광역시 강서구 녹산산단361로 9(송정동),부산광역시 강서구 녹산산단361로 9(송정동),0,0
신호119안전센터,부산광역시 강서구 신호산단4로 62(신호동),부산광역시 강서구 신호산단4로 62(신호동),0,0
대저119안전센터,부산광역시 강서구 대저로221번길 25(대저1동),부산광역시 강서구 대저로221번길 25(대저1동),0,0
강동119안전센터,부산광역시 강서구 제도로 696(강동동),부산광역시 강서구 제도로 696(강동동),0,0
지사119안전센터,부산광역시 강서구 과학산단로333번길 3(지사동),부산광역시 강서구 과학산단로333번길 3(지사동),0,0
정관119안전센터,부산광역시 기장군 정관읍 용수로 7(정관읍),부산광역시 기장군 정관읍 용수로,35.3296262,129.1727251
기장119안전센터,부산광역시 기장군 기장읍 차성동로5번길 16(기장읍),부산광역시 기장군 기장읍 차성동로5번길,35.2383678,129.2152819
송정119안전센터,부산광역시 해운대구 송정중앙로15번길 16(송정동),부산광역시 해운대구 송정중앙로15번길 16(송정동),0,0
장안119안전센터,부산광역시 기장군 장안읍 효암리 256,부산광역시 기장군 장안읍 효암리,0,0
동삼119안전센터,부산광역시 영도구 해양로 297(동삼동),부산광역시 영도구 해양로 297(동삼동),0,0
영선119안전센터,부산광역시 영도구 태종로 115(영선동1가),부산광역시 영도구 태종로 115(영선동1가),0,0
부두119안전센터,부산광역시 동구 충장대로 286(좌천동),부산광역시 동구 충장대로 286(좌천동),35.1256567,129.0522261
청학119안전센터,부산광역시 영도구 태종로 274(청학동),부산광역시 영도구 태종로 274(청학동),0,0
남산119안전센터,대구광역시 중구 달구벌대로 1926,대구광역시 중구 달구벌대로 1926,35.8663349,128.5880517
서문로119안전센터,대구광역시 중구 경상감영길 45,대구광역시 중구 경상감영길 45,35.8723335,128.5958236
봉덕119안전센터,대구광역시 남구 희망로3길 29,대구광역시 남구 희망로3길 29,35.8489612,128.5995804
대신119안전센터,대구광역시 중구 큰장로26길 45,대구광역시 중구 큰장로26길 45,35.8690066,128.5787967
삼덕119안전센터,대구광역시 중구 공평로 35,대구광역시 중구 공평로 35,35.8669297,128.5998684
명덕119안전센터,대구광역시 남구 명덕로34길 22,대구광역시 남구 명덕로34길 22,35.8512502,128.5876779
성명119안전센터,대구광역시 남구 대명남로 12-1,대구광역시 남구 대명남로 12-1,35.83491,128.5687085
신천119안전센터,대구광역시 동구 동대구로 507,대구광역시 동구 동대구로 507,35.8769113,128.6262538
동촌119안전센터,대구광역시 동구 해동로 180,대구광역시 동구 해동로 180,35.8887194,128.6447463
안심119안전센터,대구광역시 동구 반야월로 291,대구광역시 동구 반야월로 291,35.8720368,128.7159352
불로119안전센터,대구광역시 동구 팔공로50길 19,대구광역시 동구 팔공로50길 19,35.9214899,128.6434145
공산119안전센터,대구광역시 동구 팔공산로 1579,대구광역시 동구 팔공산로 1579,35.9607123,128.6955617
율하119안전센터,대구광역시 동구 율하동로8길 5,대구광역시 동구 율하동로8길 5,35.8642676,128.7031519
평리119안전센터,대구광역시 서구 달서천로 186,대구광역시 서구 달서천로 186,35.8840572,128.5353753
이현119안전센터,대구광역시 서구 국채보상로 119,대구광역시 서구 국채보상로 119,35.8689204,128.5465659
읍내119안전센터,대구광역시 북구 칠곡중앙대로 570,대구광역시 북구 칠곡중앙대로 570,35.901448,128.547524
내당119안전센터,대구광역시 서구 서대구로3길 16,대구광역시 서구 서대구로3길 16,35.8588698,128.5524342
비산119안전센터,대구광역시 서구 달서로 206,대구광역시 서구 달서로 206,35.8860108,128.5745264
태전119안전센터,대구광역시 북구 칠곡중앙대로 184,대구광역시 북구 칠곡중앙대로 184,35.901448,128.547524
동천119안전센터,대구광역시 북구 구암로 155,대구광역시 북구 구암로 155,35.9327945,128.5483656
금호119안전센터,대구광역시 북구 한강로 105,대구광역시 북구 한강로 105,35.8972366,128.5150879
칠성119안전센터,대구광역시 북구 칠성남로 112,대구광역시 북구 칠성남로 112,35.878507,128.5910379
침산119안전센터,대구광역시 북구 침산남로 149,대구광역시 북구 침산남로 149,35.8881839,128.591649
노원119안전센터,대구광역시 북구 노원로 42,대구광역시 북구 노원로 42,35.89808,128.57689
대현119안전센터,대구광역시 북구 대현로 105,대구광역시 북구 대현로 105,35.8862833,128.6022095
무태119안전센터,대구광역시 북구 호국로43길 21,대구광역시 북구 호국로43길 21,35.9211002,128.5984662
산격119안전센터,대구광역시 북구 유통단지로8길 88,대구광역시 북구 유통단지로8길 88,35.9049878,128.6083703
범물119안전센터,대구광역시 수성구 청호로 87,대구광역시 수성구 청호로 87,35.8568387,128.6425942
만촌119안전센터,대구광역시 수성구 달구벌대로 2658,대구광역시 수성구 달구벌대로 2658,35.8553191,128.6521379
황금119안전센터,대구광역시 수성구 동대구로12길 41,대구광역시 수성구 동대구로12길 41,35.8352917,128.6269014
상동119안전센터,대구광역시 수성구 파동로51길 5,대구광역시 수성구 파동로51길 5,35.822805,128.6090805
가창119안전센터,대구광역시 달성군 가창면 가창로 1100,대구광역시 달성군 가창면 가창로,35.8011229,128.6226379
수성119안전센터,대구광역시 수성구 들안로60길 30,대구광역시 수성구 들안로60길 30,35.857094,128.6189939
무열로119안전센터,대구광역시 수성구 무열로 139,대구광역시 수성구 무열로 139,35.8749213,128.6460912
고산119안전센터,대구광역시 수성구 고산로 105,대구광역시 수성구 고산로 105,35.83554,128.70414
월성119안전센터,대구광역시 달서구 학산로 75,대구광역시 달서구 학산로 75,35.8312126,128.5354662
본리119안전센터,대구광역시 달서구 대명천로 134,대구광역시 달서구 대명천로 134,35.83951,128.54479
송현119안전센터,대구광역시 달서구 월배로 262,대구광역시 달서구 월배로 262,35.818983,128.5378215
도원119안전센터,대구광역시 달서구 도원로 8,대구광역시 달서구 도원로 8,35.8069053,128.5356829
현풍119안전센터,대구광역시 달성군 현풍읍 비슬로 480,대구광역시 달성군 현풍읍 비슬로,35.6840079,128.4467244
논공119안전센터,대구광역시 달성군 논공읍 논공중앙로33길 5,대구광역시 달성군 논공읍 논공중앙로33길,35.7308908,128.4526634
화원119안전센터,대구광역시 달성군 화원읍 화암로 122,대구광역시 달성군 화원읍 화암로,35.7985808,128.5061769
구지119안전센터,대구광역시 달성군 구지면 달성2차로 111,대구광역시 달성군 구지면 달성2차로,35.639829,128.4297573
옥포119안전센터,대구광역시 달성군 옥포읍 돌미로 93,대구광역시 달성군 옥포읍 돌미로,35.7823989,128.4478573
다사119안전센터,대구광역시 달성군 다사읍 달구벌대로 920,대구광역시 달성군 다사읍 달구벌대로,35.8546797,128.4368419
성서119안전센터,대구광역시 달서구 성서로 357,대구광역시 달서구 성서로 357,35.8540989,128.5072909
죽전119안전센터,대구광역시 달서구 와룡로 222,대구광역시 달서구 와룡로 222,35.8542967,128.5373379
대천119안전센터,대구광역시 달서구 달서대로58길 129,대구광역시 달서구 달서대로58길 129,35.8248138,128.4999423
매곡119안전센터,대구광역시 달성군 다사읍 달구벌대로 753,대구광역시 달성군 다사읍 달구벌대로,35.8546797,128.4368419
중앙119안전센터,인천광역시 중구 인중로 204,인천광역시 중구 인중로 204,37.4798291,126.6170561
송현119안전센터,인천광역시 동구 방축로 39,인천광역시 동구 방축로 39,37.4833557,126.6571263
송림119안전센터,인천광역시 동구 샛골로 133,인천광역시 동구 샛골로 133,37.4787027,126.6451742
만석119안전센터,인천광역시 동구 제물량로 396,인천광역시 동구 제물량로 396,37.4848898,126.6284029
연안119안전센터,인천광역시 중구 축항대로 118,인천광역시 중구 축항대로 118,37.4618423,126.600662
백령119안전센터,인천광역시 옹진군 백령면 백령남로 30,인천광역시 옹진군 백령면 백령남로,0,0
구월119안전센터,인천광역시 남동구 인주대로 714,인천광역시 남동구 인주대로 714,37.4468611,126.7532992
만수119안전센터,인천광역시 남동구 백범로 207,인천광역시 남동구 백범로 207,37.4669437,126.7083906
간석119안전센터,인천광역시 남동구 경인로 621,인천광역시 남동구 경인로 621,37.4648036,126.7044738
담방119안전센터,인천광역시 남동구 매소홀로 1044,인천광역시 남동구 매소홀로 1044,37.4380388,126.7611663
서창119안전센터,인천광역시 남동구 서창방산로 61,인천광역시 남동구 서창방산로 61,37.4237645,126.7548116
갈산119안전센터,인천광역시 부평구 부평대로 324,인천광역시 부평구 부평대로 324,37.4919814,126.7231485
부평119안전센터,인천광역시 부평구 부평대로 8,인천광역시 부평구 부평대로 8,37.4919814,126.7231485
십정119안전센터,인천광역시 부평구 경원대로 1111,인천광역시 부평구 경원대로 1111,37.4913795,126.7239386
산곡119안전센터,인천광역시 부평구 마장로 198,인천광역시 부평구 마장로 198,37.4852568,126.7081018
부개119안전센터,인천광역시 부평구 부개로 6,인천광역시 부평구 부개로 6,37.4978824,126.7397012
삼산119안전센터,인천광역시 부평구 충선로 252,인천광역시 부평구 충선로 252,37.5093007,126.7365659
연희119안전센터,인천광역시 서구 서곶로292,인천광역시 서구 서곶로292,0,0
가좌119안전센터,인천광역시 서구 백범로678번길 17,인천광역시 서구 백범로678번길 17,37.4836155,126.6845917
신현119안전센터,인천광역시 서구 가정로 333-1,인천광역시 서구 가정로 333-1,37.5098929,126.6724561
석남119안전센터,인천광역시 서구 석남로102,인천광역시 서구 석남로102,0,0
검단119안전센터,인천광역시 서구 완정로 191,인천광역시 서구 완정로 191,37.6044597,126.647997
오류119안전센터,인천광역시 서구 검단로 229,인천광역시 서구 검단로 229,37.6105475,126.6740836
검암119안전센터,인천광역시 서구 승학로 474,인천광역시 서구 승학로 474,37.5673434,126.6835145
원당119안전센터,인천광역시 서구 원당대로 881,인천광역시 서구 원당대로 881,37.5895714,126.6486084
청라119안전센터,인천광역시 서구 청라한내로 77 ,인천광역시 서구 청라한내로 77,37.5375549,126.6281819
원창119안전센터,인천광역시 서구 북항로32번길 47-5,인천광역시 서구 북항로32번길 47-5,37.5109376,126.6459104
고잔119안전센터,인천광역시 남동구 남동서로 208,인천광역시 남동구 남동서로 208,37.3964598,126.6837769
옥련119안전센터,인천광역시 연수구 청량로 155번길 7,인천광역시 연수구 청량로 155번길,0,0
도림119안전센터,인천광역시 남동구 비류대로 667,인천광역시 남동구 비류대로 667,37.4209042,126.7354997
동춘119안전센터,인천광역시 연수구 앵고개로 241,인천광역시 연수구 앵고개로 241,37.4126813,126.6629869
논현119안전센터,인천광역시 남동구 소래역로 109,인천광역시 남동구 소래역로 109,37.40530395,126.7296686
소래119안전센터,인천광역시 남동구 에코중앙로 86,인천광역시 남동구 에코중앙로 86,37.3884163,126.7224896
작전119안전센터,인천광역시 계양구 장제로 774,인천광역시 계양구 장제로 774,37.5563178,126.7456414
계산119안전센터,인천광역시 계양구 주부토길 557,인천광역시 계양구 주부토길 557,0,0
장기119안전센터,인천광역시 계양구 장기서로 14,인천광역시 계양구 장기서로 14,37.5763407,126.7337584
효성119안전센터,인천광역시 계양구 효서로 96-1,인천광역시 계양구 효서로 96-1,37.5274706,126.7417183
신기119안전센터,인천광역시 미추홀구 인하로 190,인천광역시 미추홀구 인하로 190,37.4484637,126.6735005
주안119안전센터,인천광역시 미추홀구 한나루로 607,인천광역시 미추홀구 한나루로 607,37.4437357,126.6648082
도화119안전센터,인천광역시 미추홀구 장고개로 85,인천광역시 미추홀구 장고개로 85,37.4717582,126.6675227
용현119안전센터,인천광역시 미추홀구 독배로 376,인천광역시 미추홀구 독배로 376,37.4619077,126.6434085
관교119안전센터,인천광역시 미추홀구 인하로 450,인천광역시 미추홀구 인하로 450,37.4484637,126.6735005
숭의119안전센터,인천광역시 미추홀구 석정로 51,인천광역시 미추홀구 석정로 51,37.4681597,126.6679208
불은119안전센터,인천광역시 강화군 불은면 중앙로 505,인천광역시 강화군 불은면 중앙로,37.6992251,126.4302936
강화119안전센터,인천광역시 강화군 강화읍 남문로23번길 11,인천광역시 강화군 강화읍 남문로23번길,37.7396926,126.4869277
길상119안전센터,인천광역시 강화군 길상면 마니산로 93,인천광역시 강화군 길상면 마니산로,37.6359309,126.4751858
내가119안전센터,인천광역시 강화군 내가면 강화서로 235-1,인천광역시 강화군 내가면 강화서로,37.7294432,126.3884692
공항119안전센터,인천광역시 중구 제2터미널대로 268 ,인천광역시 중구 제2터미널대로 268,37.4692893,126.4384425
운서119안전센터,인천광역시 중구 흰바위로27번길 16,인천광역시 중구 흰바위로27번길 16,37.4939748,126.4881135
운남119안전센터,인천광역시 중구 운남로 116,인천광역시 중구 운남로 116,37.487931,126.5333762
용유119안전센터,인천광역시 중구 용유서로128번길 1,인천광역시 중구 용유서로128번길 1,0,0
미래119안전센터,인천광역시 연수구 첨단대로 60번길 15,인천광역시 연수구 첨단대로 60번길,0,0
신송119안전센터,인천광역시 연수구 해돋이로 92,인천광역시 연수구 해돋이로 92,37.3932799,126.6476101
영흥119안전센터,인천광역시 영흥면 영흥로 283-32,인천광역시 영흥면 영흥로 283-32,37.2566296,126.4829172
국제119안전센터,인천광역시 연수구 센트럴로 412,인천광역시 연수구 센트럴로 412,37.4102937,126.6287317
대인119안전센터,광주광역시 동구 제봉로 210(대인동),광주광역시 동구 제봉로 210(대인동),0,0
용산119안전센터,광주광역시 동구 남문로 535(용산동),광주광역시 동구 남문로 535(용산동),0,0
지산119안전센터,광주광역시 동구 밤실로30번길 16(지산동),광주광역시 동구 밤실로30번길 16(지산동),0,0
화정119안전센터,광주광역시 서구 화운로 197(화정동),광주광역시 서구 화운로 197(화정동),0,0
염주119안전센터,광주광역시 서구 염화로 77(화정동),광주광역시 서구 염화로 77(화정동),0,0
금호119안전센터,광주광역시 서구 운천로 112(쌍촌동),광주광역시 서구 운천로 112(쌍촌동),0,0
상무119안전센터,광주광역시 서구 치평로 65(치평동),광주광역시 서구 치평로 65(치평동),0,0
풍암119안전센터,광주광역시 서구 회재로 907(금호동),광주광역시 서구 회재로 907(금호동),0,0
송하119안전센터,광주광역시 남구 송암로58번길 13(송하동),광주광역시 남구 송암로58번길 13(송하동),0,0
월산119안전센터,광주광역시 남구 수박등로 1(월산동),광주광역시 남구 수박등로 1(월산동),0,0
봉선119안전센터,광주광역시 남구 오방로 63(방림동),광주광역시 남구 오방로 63(방림동),0,0
문흥119안전센터,광주광역시 북구 서하로 290(오치동),광주광역시 북구 서하로 290(오치동),0,0
임동119안전센터,광주광역시 북구 서림로 5(임동),광주광역시 북구 서림로 5(임동),0,0
우산119안전센터,광주광역시 북구 동문대로 127(우산동),광주광역시 북구 동문대로 127(우산동),0,0
일곡119안전센터,광주광역시 북구 설죽로 529(일곡동),광주광역시 북구 설죽로 529(일곡동),0,0
두암119안전센터,광주광역시 북구 삼정로 5(두암동),광주광역시 북구 삼정로 5(두암동),0,0
동림119안전센터,광주광역시 북구 북문대로 202(동림동),광주광역시 북구 북문대로 202(동림동),35.1857085,126.8675028
하남119안전센터,광주광역시 광산구 하남산단1번로 13(하남동),광주광역시 광산구 하남산단1번로 13(하남동),0,0
송정119안전센터,광주광역시 광산구 상무대로 93-1(도산동),광주광역시 광산구 상무대로 93-1(도산동),0,0
월곡119안전센터,광주광역시 광산구 우산로 85번길 12-5(우산동),광주광역시 광산구 우산로 85번길,0,0
비아119안전센터,광주광역시 광산구 비아로12번길 10(비아동),광주광역시 광산구 비아로12번길 10(비아동),0,0
신가119안전센터,광주광역시 광산구 수등로 236(신가동),광주광역시 광산구 수등로 236(신가동),0,0
첨단119안전센터,광주광역시 광산구 임방울대로825번길 16(쌍암동),광주광역시 광산구 임방울대로825번길 16(쌍암동),0,0
평동119안전센터,광주광역시 광산구 월전로 59(월전동),광주광역시 광산구 월전로 59(월전동),0,0
가양119안전센터,대전광역시 동구 계족로 300,대전광역시 동구 계족로 300,36.3552005,127.4315189
삼성119안전센터,대전광역시 동구 태전로 134,대전광역시 동구 태전로 134,36.3343162,127.4286615
원동119안전센터,대전광역시 동구 대전천동로 508,대전광역시 동구 대전천동로 508,36.3315657,127.4279839
부사119안전센터,대전광역시 중구 대종로 373,대전광역시 중구 대종로 373,36.3112229,127.4388907
산내119안전센터,대전광역시 동구 산내로 1328,대전광역시 동구 산내로 1328,36.2284732,127.4480369
용운119안전센터,대전광역시 동구 용운로 151번길 88,대전광역시 동구 용운로 151번길,0,0
갈마119안전센터,대전광역시 서구 갈마중로 15,대전광역시 서구 갈마중로 15,36.3476493,127.3723185
태평119안전센터,대전광역시 중구 동서대로 1235,대전광역시 중구 동서대로 1235,36.3275868,127.4011786
탄방119안전센터,대전광역시 서구 문정로 142,대전광역시 서구 문정로 142,36.3576427,127.3952739
월평119안전센터,대전광역시 서구 청사로 27,대전광역시 서구 청사로 27,36.36031665,127.3668982
샘머리119안전센터,대전광역시 서구 둔산로 101번길 26,대전광역시 서구 둔산로 101번길,0,0
법동119안전센터,대전광역시 대덕구 계족로 682,대전광역시 대덕구 계족로 682,36.3552005,127.4315189
대화119안전센터,대전광역시 대덕구 대화로 81,대전광역시 대덕구 대화로 81,36.3633777,127.4095584
덕암119안전센터,대전광역시 대덕구 신탄진로 661,대전광역시 대덕구 신탄진로 661,36.4523278,127.4287914
문평119안전센터,대전광역시 대덕구 문평동로 18번길 34,대전광역시 대덕구 문평동로 18번길,0,0
송촌119안전센터,대전광역시 대덕구 동춘당로 65,대전광역시 대덕구 동춘당로 65,36.3676112,127.431763
도룡119안전센터,대전광역시 유성구 대덕대로 516,대전광역시 유성구 대덕대로 516,36.37913655,127.3790346
전민119안전센터,대전광역시 유성구 엑스포로 486-11,대전광역시 유성구 엑스포로 486-11,36.4113919,127.4058936
구암119안전센터,대전광역시 유성구 월드컵대로 263,대전광역시 유성구 월드컵대로 263,36.3484272,127.3479198
궁동119안전센터,대전광역시 유성구 궁동로 35,대전광역시 유성구 궁동로 35,36.3640523,127.3506884
노은119안전센터,대전광역시 유성구 노은로 101,대전광역시 유성구 노은로 101,36.3628865,127.3178081
복수119안전센터,대전광역시 서구 복수서로 67,대전광역시 서구 복수서로 67,36.30932695,127.3723569
문화119안전센터,대전광역시 중구 계룡로 918번길 67,대전광역시 중구 계룡로 918번길,0,0
산성119안전센터,대전광역시 중구 산성로 59,대전광역시 중구 산성로 59,36.3123526,127.4020614
가수원119안전센터,대전광역시 서구 용소로 46,대전광역시 서구 용소로 46,36.3089565,127.3514391
원내119안전센터,대전광역시 유성구 계백로 801번길 17,대전광역시 유성구 계백로 801번길,0,0
유곡119안전센터,울산광역시 중구 종가로 205,울산광역시 중구 종가로 205,35.5655934,129.3195822
성남119안전센터,울산광역시 중구 만남의거리 14,울산광역시 중구 만남의거리 14,35.5539907,129.320517
병영119안전센터,울산광역시 중구 구교로 226,울산광역시 중구 구교로 226,35.5579865,129.3398226
태화119안전센터,울산광역시 중구 태화로 111,울산광역시 중구 태화로 111,35.5516512,129.29755
삼산119안전센터,울산광역시 남구 삼산중로 149,울산광역시 남구 삼산중로 149,35.53782,129.3356983
여천119안전센터,울산광역시 남구 여천로 81-33,울산광역시 남구 여천로 81-33,35.5246068,129.3450618
신정119안전센터,울산광역시 남구 신정로 87번길 2,울산광역시 남구 신정로 87번길,0,0
장생포119안전센터,울산광역시 남구 매암로 18,울산광역시 남구 매암로 18,35.5097537,129.3773114
무거119안전센터,울산광역시 남구 문수로 89,울산광역시 남구 문수로 89,35.5364065,129.2552281
공단119안전센터,울산광역시 남구 사평로 161,울산광역시 남구 사평로 161,35.49111,129.33274
옥동119안전센터,울산광역시 남구 대공원입구로21번길 20,울산광역시 남구 대공원입구로21번길 20,35.53398,129.29327
화암119안전센터,울산광역시 동구 꽃바위2가길 9,울산광역시 동구 꽃바위2가길 9,35.4828355,129.4131531
화정119안전센터,울산광역시 동구 방어진순환도로 601,울산광역시 동구 방어진순환도로 601,35.49551675,129.4269801
전하119안전센터,울산광역시 동구 진성4가길 8,울산광역시 동구 진성4가길 8,35.5100828,129.4290055
송정119안전센터,울산광역시 북구 화동로 178,울산광역시 북구 화동로 178,35.5927614,129.3694338
농소119안전센터,울산광역시 북구 아진로 72,울산광역시 북구 아진로 72,35.62994595,129.3407709
매곡119안전센터,울산광역시 북구 오토밸리로 1024,울산광역시 북구 오토밸리로 1024,35.64868915,129.3595325
염포119안전센터,울산광역시 북구 염포로 769,울산광역시 북구 염포로 769,35.5609438,129.3677027
강동119안전센터,울산광역시 북구 산하중앙2로 231 ,울산광역시 북구 산하중앙2로 231,35.6237005,129.4394886
온산119안전센터,울산광역시 울주군 온산읍 덕신로 232,울산광역시 울주군 온산읍 덕신로,35.43703,129.28884
온양119안전센터,울산광역시 울주군 온양읍 온양로 74,울산광역시 울주군 온양읍 온양로,35.4062175,129.3017747
웅촌119안전센터,울산광역시 울주군 웅촌면 곡천검단로 9,울산광역시 울주군 웅촌면 곡천검단로,35.45842,129.19419
화산119안전센터,울산광역시 울주군 온산읍 공단로 417,울산광역시 울주군 온산읍 공단로,35.4042919,129.3460194
언양119안전센터,울산광역시 울주군 언양읍 남천둑길 99,울산광역시 울주군 언양읍 남천둑길,35.55993,129.1323
범서119안전센터,울산광역시 울주군 범서읍 구영앞길 99,울산광역시 울주군 범서읍 구영앞길,35.5679325,129.2405303
두서119안전센터,울산광역시 울주군 두서면 인보로 85,울산광역시 울주군 두서면 인보로,35.6460393,129.161341
조치원119안전센터,세종특별자치시 조치원읍 세종로 2439,세종특별자치시 조치원읍 세종로 2439,36.60483015,127.288923
전의119안전센터,세종특별자치시 전의면 서정길 46-6,세종특별자치시 전의면 서정길 46-6,36.6893803,127.1901537
부강119안전센터,세종특별자치시 부강면 청연로 7,세종특별자치시 부강면 청연로 7,36.5312016,127.3692713
연서119안전센터,세종특별자치시 연서면 도신고복로 306,세종특별자치시 연서면 도신고복로 306,36.5988589,127.2270821
어진119안전센터,세종특별자치시 절재로 301(어진동),세종특별자치시 절재로 301(어진동),0,0
아름119안전센터,세종특별자치시 보듬3로 119(아름동),세종특별자치시 보듬3로 119(아름동),36.512175,127.2468972
한솔119안전센터,세종특별자치시 노을3로 29(한솔동),세종특별자치시 노을3로 29(한솔동),0,0
보람119안전센터,세종특별자치시 남세종로 436(보람동),세종특별자치시 남세종로 436(보람동),36.47834565,127.2924496
장군119안전센터,세종특별자치시 장군면 장척로 391,세종특별자치시 장군면 장척로 391,36.5001948,127.2160389
정자119안전센터,경기도 수원시 정자천로189번길 12,경기도 수원시 정자천로189번길 12,0,0
원천119안전센터,경기도 수원시 영통구 중부대로 349,경기도 수원시 영통구 중부대로,37.2685431,127.0682853
파장119안전센터,경기도 수원시 장안구 서부로 2308,경기도 수원시 장안구 서부로,0,0
이의119안전센터,경기도 수원시 영통구 도청로 10,경기도 수원시 영통구 도청로,37.2863828,127.0542684
영통119안전센터,경기도 수원시 영통구 매영로 325,경기도 수원시 영통구 매영로,0,0
남부119안전센터,경기도 수원시 권선구 동수원로 286,경기도 수원시 권선구 동수원로,0,0
매산119안전센터,경기도 수원시 팔달구 매산로 89,경기도 수원시 팔달구 매산로,37.2661663,127.0009126
지만119안전센터,경기도 수원시 팔달구 경수대로 660,경기도 수원시 팔달구 경수대로,37.2747528,127.029542
서둔119안전센터,경기도 수원시 권선구 서호동로 48,경기도 수원시 권선구 서호동로,37.2681883,126.986043
고색119안전센터,경기도 수원시 권선구 서부로 1614,경기도 수원시 권선구 서부로,0,0
호매실119안전센터,경기도 수원시 권선구 금곡로 194,경기도 수원시 권선구 금곡로,0,0
수진119안전센터,경기도 성남시 수정구 제일로 111,경기도 성남시 수정구 제일로,0,0
신흥119안전센터,경기도 성남시 수정구 시민로 151,경기도 성남시 수정구 시민로,0,0
상대원119안전센터,경기도 성남시 중원구 둔촌대로 469,경기도 성남시 중원구 둔촌대로,0,0
단대119안전센터,경기도 성남시 수정구 논골로 11번길 7-2,경기도 성남시 수정구 논골로,0,0
위례119안전센터,경기도 성남시 수정구 헌릉로 1003,경기도 성남시 수정구 헌릉로,37.4680561,127.1328667
태평119안전센터,경기도 성남시 수정구 성남대로 1312,경기도 성남시 수정구 성남대로,0,0
서현119안전센터,경기도 성남시 분당구 양현로 14,경기도 성남시 분당구 양현로,0,0
판교119안전센터,경기도 성남시 분당구 대왕판교로644번길 62,경기도 성남시 분당구 대왕판교로644번길,0,0
서판교119안전센터,경기도 성남시 분당구 운중로 88,경기도 성남시 분당구 운중로,0,0
수내119안전센터,경기도 성남시 분당구 백현로 241,경기도 성남시 분당구 백현로,0,0
야탑119안전센터,경기도 성남시 분당구 양현로 485,경기도 성남시 분당구 양현로,0,0
구미119안전센터,경기도 성남시 분당구 돌마로 138,경기도 성남시 분당구 돌마로,0,0
중앙119안전센터,경기도 부천시 신흥로 115 ,경기도 부천시 신흥로 115,0,0
오정119안전센터,경기도 부천시 신흥로 499 ,경기도 부천시 신흥로 499,0,0
중동119안전센터,경기도 부천시 부일로 346 ,경기도 부천시 부일로 346,37.4888188,126.7402849
괴안119안전센터,경기도 부천시 부광로8번길 49,경기도 부천시 부광로8번길 49,0,0
원종119안전센터,경기도 부천시 원종로79번길 41 ,경기도 부천시 원종로79번길 41,0,0
상동119안전센터,경기도 부천시 장말로 113 ,경기도 부천시 장말로 113,37.4941841,126.7455811
서부119안전센터,경기도 부천시 계남로 169 ,경기도 부천시 계남로 169,0,0
범박119안전센터,경기도 부천시 범안로 127,경기도 부천시 범안로 127,0,0
신상119안전센터,경기도 부천시 상동로117번길 36 ,경기도 부천시 상동로117번길 36,0,0
여월119안전센터,경기도 부천시 여월로 62 ,경기도 부천시 여월로 62,0,0
부림119안전센터,경기도 안양시 동안구 관평로212번길 32(관양동),경기도 안양시 동안구 관평로212번길,0,0
안양119안전센터,경기도 안양시 만안구 현충로 55(안양동),경기도 안양시 만안구 현충로,0,0
관양119안전센터,경기도 안양시 동안구 동편로13번길 6(관양동),경기도 안양시 동안구 동편로13번길,0,0
석수119안전센터,경기도 안양시 만안구 석수로 28(석수동),경기도 안양시 만안구 석수로,37.4318377,126.8996215
귀인119안전센터,경기도 안양시 동안구 평촌대로 104(평촌동),경기도 안양시 동안구 평촌대로,37.4141466,126.9507427
박달119안전센터,경기도 안양시 만안구 오리로 38(박달동),경기도 안양시 만안구 오리로,0,0
고잔119안전센터,경기도 안산시 단원구 화랑로 407,경기도 안산시 단원구 화랑로,0,0
원시119안전센터,경기도 안산시 단원구 동산로 31,경기도 안산시 단원구 동산로,0,0
선부119안전센터,겅기도 안산시 단원구 선부광장서로 43,겅기도 안산시 단원구 선부광장서로,0,0
성곡119안전센터,경기도 안산시 단원구 장자골로 66,경기도 안산시 단원구 장자골로,0,0
월피119안전센터,경기도 안산시 상록구 충장로 645,경기도 안산시 상록구 충장로,0,0
군자119안전센터,경기도 안산시 단원구 번영1로 45,경기도 안산시 단원구 번영1로,0,0
사동119안전센터,경기도 안산시 상록구 항가울로 230,경기도 안산시 상록구 항가울로,0,0
대부119안전센터,경기도 안산시 단원구 영전로 375,경기도 안산시 단원구 영전로,0,0
반월119안전센터,경기도 안산시 상록구 건지미길 48,경기도 안산시 상록구 건지미길,0,0
신길119안전센터,경기도 안산시 단원구 삼일로 50,경기도 안산시 단원구 삼일로,0,0
역북119안전센터,경기도 용인시 처인구 명지로 45,경기도 용인시 처인구 명지로,37.2263253,127.1992108
구갈119안전센터,경기도 용인시 기흥구 신구로 74,경기도 용인시 기흥구 신구로,37.2726513,127.1095378
수지119안전센터,경기도 용인시 수지구 풍덕천로 177,경기도 용인시 수지구 풍덕천로,37.3260498,127.1007645
양지119안전센터,경기도 용인시 처인구 양지면 남평로 46,경기도 용인시 처인구 양지면,37.2354917,127.2798585
남사119안전센터,경기도 용인시 처인구 남사면 봉무로 13,경기도 용인시 처인구 남사면,0,0
포곡119안전센터,경기도 용인시 처인구 포곡읍 포곡로 252,경기도 용인시 처인구 포곡읍,37.2778094,127.2308608
이동119안전센터,경기도 용인시 처인구 이동면 백옥대로 416-2,경기도 용인시 처인구 이동면,0,0
보정119안전센터,경기도 용인시 기흥구 보정로114번길 2,경기도 용인시 기흥구 보정로114번길,0,0
백암119안전센터,경기도 용인시 처인구 백암면 백암로 247,경기도 용인시 처인구 백암면,37.1634125,127.3754054
동백119안전센터,경기도 용인시 기흥구 동백6로 33,경기도 용인시 기흥구 동백6로,37.2765107,127.1564165
모현119안전센터,경기도 용인시 처인구 모현면 독점로 31-12,경기도 용인시 처인구 모현면,0,0
기흥119안전센터,경기도 용인시 기흥구 한보라1로 128,경기도 용인시 기흥구 한보라1로,0,0
비전119안전센터,경기도 평택시 중앙로 273,경기도 평택시 중앙로 273,0,0
안중119안전센터,경기도 평택시 안중읍 안현로서7길 28,경기도 평택시 안중읍 안현로서7길,0,0
팽성119안전센터,경기도 평택시 팽성읍 팽성화로 172,경기도 평택시 팽성읍 팽성화로,0,0
포승119안전센터,경기도 평택시 포승읍 평택항로 156번길 11,경기도 평택시 포승읍 평택항로,0,0
신장119안전센터,경기도 평택시 경기대로 1627(신장동),경기도 평택시 경기대로 1627(신장동),0,0
진위119안전센터,경기도 평택시 진위면 봉남길 30,경기도 평택시 진위면 봉남길,0,0
모곡119안전센터,경기도 평택시 산단로64번길 2 (모곡동),경기도 평택시 산단로64번길 2,0,0
서탄119안전센터,경기도 평택시 서탄면 서탄로 241,경기도 평택시 서탄면 서탄로,0,0
고덕119안전센터,경기도 평택시 고덕면 고덕로 335,경기도 평택시 고덕면 고덕로,0,0
청북119안전센터,경기도 평택시 청북면 현곡산단로 16,경기도 평택시 청북면 현곡산단로,0,0
소하119안전센터,경기도 광명시 금하로 472,경기도 광명시 금하로 472,0,0
광명119안전센터,경기도 광명시 사성로 12,경기도 광명시 사성로 12,37.4880321,126.8660622
하안119안전센터,경기도 광명시 범안로 1025,경기도 광명시 범안로 1025,37.4625769,126.8797823
광남119안전센터,경기도 광명시 목감로 34,경기도 광명시 목감로 34,37.4823425,126.853778
시흥119안전센터,경기도 시흥시 정왕신길로 206,경기도 시흥시 정왕신길로 206,0,0
은행119안전센터,경기도 시흥시 대은로 4,경기도 시흥시 대은로 4,0,0
정왕119안전센터,경기도 공단1대로259번길 1,경기도 공단1대로259번길 1,0,0
연성119안전센터,경기도 시흥시 새재로 29,경기도 시흥시 새재로 29,0,0
오금119안전센터,경기도 군포시 고산로 429,경기도 군포시 고산로 429,0,0
산본119안전센터,경기도 군포시 산본로432번길 1,경기도 군포시 산본로432번길 1,0,0
향남119안전센터,경기도 화성시 향남읍 향남로 399 ,경기도 화성시 향남읍 향남로,0,0
정남119안전센터,경기도 화성시 정남면 정남동로 514,경기도 화성시 정남면 정남동로,0,0
반송119안전센터,경기도 화성시 동탄반석로 188,경기도 화성시 동탄반석로 188,37.199207,127.0714206
목동119안전센터,경기도 화성시 동탄신리천로 359,경기도 화성시 동탄신리천로 359,37.1891444,127.0816663
태안119안전센터,경기도 화성시 병점중앙로 148,경기도 화성시 병점중앙로 148,37.2088829,127.0403629
남양119안전센터,경기도 화성시 남양읍 남양시장로 48,경기도 화성시 남양읍 남양시장로,0,0
봉담119안전센터,경기도 화성시 봉담읍 동화새터길 135,경기도 화성시 봉담읍 동화새터길,0,0
장안119안전센터,경기도 화성시 장안면 3.1만세로 119,경기도 화성시 장안면 3.1만세로,0,0
관고119안전센터,경기도 이천시 경충대로 2739,경기도 이천시 경충대로 2739,37.1303888,127.6075746
대월119안전센터,경기도 이천시 경충대로 1973,경기도 이천시 경충대로 1973,37.1303888,127.6075746
장호원119안전센터,경기도 이천시 서동대로 8829번길 71,경기도 이천시 서동대로 8829번길,0,0
마장119안전센터,경기도 이천시 마장면 중앙로 87,경기도 이천시 마장면 중앙로,0,0
중앙119안전센터,경기도 김포시 감암로 111,경기도 김포시 감암로 111,37.6371499,126.7103637
양촌119안전센터,경기도 김포시 양곡로 85,경기도 김포시 양곡로 85,37.6682877,126.6481531
마산119안전센터,경기도 김포시 김포한강8로 196,경기도 김포시 김포한강8로 196,37.63967305,126.6442813
대곶119안전센터,경기도 김포시 대곶면 수남로 104,경기도 김포시 대곶면 수남로,37.6313592,126.5836043
통진119안전센터,경기도 김포시 통진읍 김포대로 2250,경기도 김포시 통진읍 김포대로,37.6970367,126.5844454
고촌119안전센터,경기도 김포시 고촌읍 은행영사정로 31,경기도 김포시 고촌읍 은행영사정로,37.605287,126.7839801
하성119안전센터,경기도 김포시 하성면 하성로 404,경기도 김포시 하성면 하성로,37.7195622,126.6345885
초월119안전센터,경기도 광주시 초월읍 무들로 112 광주소방서,경기도 광주시 초월읍 무들로,0,0
송정119안전센터,경기도 광주시 수하길 36,경기도 광주시 수하길 36,0,0
오포119안전센터,경기도 광주시 오포읍 오포로 910-5,경기도 광주시 오포읍 오포로,0,0
곤지암119안전센터,경기도 광주시 곤지암읍 도척로 163,경기도 광주시 곤지암읍 도척로,0,0
능평119안전센터,경기도 광주시 오포읍 대명대길 30,경기도 광주시 오포읍 대명대길,0,0
도기119안전센터,경기도 안성시 미양로 855 (도기동),경기도 안성시 미양로 855,36.9966198,127.2471212
미양119안전센터,경기도 안성시 미양면 제2공단3길 8 (계륵리),경기도 안성시 미양면 제2공단3길,0,0
죽산119안전센터,경기도 안성시 죽산면 장원공단길 38 (장원리),경기도 안성시 죽산면 장원공단길,37.0693764,127.4235451
공도119안전센터,경기도 안성시 공도읍 공도로 111 (만정리),경기도 안성시 공도읍 공도로,37.0000275,127.1728966
원곡119안전센터,경기도 안성시 원곡면 원곡물류단지로 162-20 (칠곡리),경기도 안성시 원곡면 원곡물류단지로,0,0
신장119안전센터,경기도 하남시 대청로 76,경기도 하남시 대청로 76,0,0
감북119안전센터,경기도 하남시 초광산단서로 16번길 39,경기도 하남시 초광산단서로 16번길,0,0
덕풍119안전센터,경기도 하남시 덕풍서로 60,경기도 하남시 덕풍서로 60,0,0
고천119안전센터,경기도 의왕시 오봉로 9 ,경기도 의왕시 오봉로 9,0,0
백운119안전센터,경기도 의왕시 안양판교로 187,경기도 의왕시 안양판교로 187,0,0
부곡119안전센터,경기도 의왕시 오봉로 289,경기도 의왕시 오봉로 289,0,0
세교119안전센터,경기도 오산시 문헌공로 30,경기도 오산시 문헌공로 30,0,0
원동119안전센터,경기도 오산시 경기대로 99,경기도 오산시 경기대로 99,37.13349565,127.0706337
청학119안전센터,경기도 오산시 청학로 55-6,경기도 오산시 청학로 55-6,37.1547108,127.0639537
월송119안전센터,경기도 여주시 우암로 110,경기도 여주시 우암로 110,37.2872546,127.6202943
가남119안전센터,경기도 여주시 가남읍 일신로 32,경기도 여주시 가남읍 일신로,0,0
북내119안전센터,경기도 여주시 북내면 도예로 440,경기도 여주시 북내면 도예로,37.3167951,127.6557233
공흥119안전센터,경기도 양평군 양평읍 경강로 2047 ,경기도 양평군 양평읍 경강로,37.4993193,127.5125167
강상119안전센터,경기도 양평군 강상면 송학길 54 강상119안전센터,경기도 양평군 강상면 송학길,37.4782968,127.4663011
용문119안전센터,경기도 양평군 용문면 연수로 64,경기도 양평군 용문면 연수로,37.5030333,127.572016
양서119안전센터,경기도 양평군 양서면 양수리 1161-4,경기도 양평군 양서면 양수리,0,0
중앙119안전센터,경기도 과천시 통영로 12,경기도 과천시 통영로 12,0,0
과천119안전센터,경기도 과천시 궁말로30,경기도 과천시 궁말로30,0,0
원당119안전센터,경기도 고양시 덕양구 고양대로 1342,경기도 고양시 덕양구 고양대로,37.647929,126.8565987
능곡119안전센터,경기도 고양시 덕양구 토당로 48,경기도 고양시 덕양구 토당로,0,0
삼송119안전센터,경기도 고양시 덕양구 오금로 14,경기도 고양시 덕양구 오금로,37.66301,126.8943857
행신119안전센터,경기도 고양시 덕양구 소원로 181번길 52,경기도 고양시 덕양구 소원로,37.6146849,126.8296185
화전119안전센터,경기도 고양시 덕양구 중앙로 78,경기도 고양시 덕양구 중앙로,37.620804,126.8395898
장항119안전센터,경기도 고양시 일산동구 중앙로 1325,경기도 고양시 일산동구 중앙로,37.6646628,126.7688458
백석119안전센터,경기도 고양시 일산동구 장백로 78,경기도 고양시 일산동구 장백로,37.647611,126.7802091
주엽119안전센터,경기도 고양시 일산서구 주화로 82,경기도 고양시 일산서구 주화로,37.6734754,126.7511152
중산119안전센터,경기도 고양시 일산동 중산로 218,경기도 고양시 일산동 중산로,37.6800035,126.7817763
고봉119안전센터,경기도 고양시 일산동 성현로 429,경기도 고양시 일산동 성현로,37.6968973,126.838964
대화119안전센터,경기도 고양시 일산서구 중앙로 1630,경기도 고양시 일산서구 중앙로,37.676523,126.74685
풍동119안전센터,경기도 고양시 일산동 숲속마을로 10,경기도 고양시 일산동 숲속마을로,37.6671875,126.7985079
문화119안전센터,경기도 고양시 일산동구 태극로 7,경기도 고양시 일산동구 태극로,37.6616626,126.7527804
금오119안전센터,경기도 의정부시 금오로23번길 22-40,경기도 의정부시 금오로23번길 22-40,0,0
흥선119안전센터,경기도 의정부시 의정로 48,경기도 의정부시 의정로 48,0,0
호원119안전센터,경기도 의정부시 평화로 322번길 7,경기도 의정부시 평화로 322번길,0,0
송산119안전센터,경기도 의정부시 충의로 90,경기도 의정부시 충의로 90,0,0
평내119안전센터,경기도 남양주시 평내동 평내로 25,경기도 남양주시 평내동 평내로,37.6440158,127.2367619
진접119안전센터,경기도 남양주시 진접읍 금강로 1509-25,경기도 남양주시 진접읍 금강로,37.7315687,127.1942877
진건119안전센터,경기도 남양주시 진건읍 진건오남로 112-21,경기도 남양주시 진건읍 진건오남로,37.6732465,127.2021784
화도119안전센터,경기도 남양주시 화도읍 수레로1260번길 25,경기도 남양주시 화도읍 수레로1260번길,37.6498734,127.3040587
와부119안전센터,경기도 남양주시 와부읍 덕소로97번길 34-2,경기도 남양주시 와부읍 덕소로97번길,37.5879317,127.218382
별내119안전센터,경기도 남양주시 별내동 송산로 793-41,경기도 남양주시 별내동 송산로,37.6440654,127.1297809
오남119안전센터,경기도 남양주시 오남읍 진건오남로 772,경기도 남양주시 오남읍 진건오남로,37.7073956,127.1891265
가운119안전센터,경기도 남양주시 가운동 가운로 16,경기도 남양주시 가운동 가운로,0,0
통일119안전센터,경기도 파주시 파주읍 통일로 1564 ,경기도 파주시 파주읍 통일로,37.8404352,126.790723
금촌119안전센터,경기도 파주시 가나무로 136  ,경기도 파주시 가나무로 136,37.7541699,126.7811387
법원119안전센터,경기도 파주시 법원읍 화합로 141,경기도 파주시 법원읍 화합로,37.8478975,126.9081576
광탄119안전센터,경기도 파주시 광탄면 혜음로 1040 ,경기도 파주시 광탄면 혜음로,37.7345429,126.8856839
탄현119안전센터,경기도 파주시 탄현면 필승로 458 ,경기도 파주시 탄현면 필승로,37.7733142,126.6985632
월롱119안전센터,경기도 파주시 월롱면 엘씨디로 310 ,경기도 파주시 월롱면 엘씨디로,37.8068919,126.7736182
교하119안전센터,경기도 파주시 청석로 301 ,경기도 파주시 청석로 301,37.7332067,126.7194411
적성119안전센터,경기도 파주시 적성면 감악산로 1220 ,경기도 파주시 적성면 감악산로,37.9627062,126.9254361
운정119안전센터,파주시 와석순환로 90,파주시 와석순환로 90,37.7236713,126.7390744
교문119안전센터,경기도 구리시 아차산로487번길 46,경기도 구리시 아차산로487번길 46,0,0
인창119안전센터,경기도 건원대로34번길 28,경기도 건원대로34번길 28,0,0
갈매119안전센터,경기도 구리시 산마루로68,경기도 구리시 산마루로68,0,0
군내119안전센터,경기도 포천시 호국로 1538,경기도 포천시 호국로 1538,38.0918503,127.26616
소흘119안전센터,경기도 포천시 소흘읍 송우로 182,경기도 포천시 소흘읍 송우로,0,0
영북119안전센터,경기도 포천시 영북면 영북로 144,경기도 포천시 영북면 영북로,38.0783341,127.2750226
일동119안전센터,경기도 포천시 일동면 영일로 978,경기도 포천시 일동면 영일로,0,0
가산119안전센터,경기도 포천시 포천로 890,경기도 포천시 포천로 890,37.8180222,127.2112611
내촌119안전센터,경기도 포천시 내촌면 내촌로 120,경기도 포천시 내촌면 내촌로,0,0
영중119안전센터,경기도 포천시 영중면 양문로 66,경기도 포천시 영중면 양문로,38.0038153,127.2443055
선단119안전센터,경기도 포천시 호국로 1007-33,경기도 포천시 호국로 1007-33,38.0918503,127.26616
백석119안전센터,경기도 양주시 꿈나무로 156,경기도 양주시 꿈나무로 156,37.79587085,126.9893907
회천119안전센터,경기도 양주시 화합로 1272,경기도 양주시 화합로 1272,37.8466984,127.0616045
광적119안전센터,경기도 양주시 광적면 광적로 55,경기도 양주시 광적면 광적로,37.8263584,126.9807621
고읍119안전센터,경기도 양주시 고덕로 266,경기도 양주시 고덕로 266,37.8129105,127.0524984
남면119안전센터,경기도 양주시 남면 삼육사로 247,경기도 양주시 남면 삼육사로,37.8917084,126.9819596
장흥119안전센터,경기도 양주시 장흥면 일영로 794,경기도 양주시 장흥면 일영로,37.70399,126.93178
옥정119안전센터,경기도 양주시 옥정로 8길 52,경기도 양주시 옥정로 8길,0,0
불현119안전센터,경기도 동두천시 지행로 6,경기도 동두천시 지행로 6,0,0
소요119안전센터,경기 동두천시 평화로2910번길 65,경기 동두천시 평화로2910번길 65,0,0
가평119안전센터,경기도 가평군 가평읍 가화로 36,경기도 가평군 가평읍 가화로,37.8385133,127.5072562
조종119안전센터,경기도 가평군 조종면 현창로 14,경기도 가평군 조종면 현창로,0,0
설악119안전센터,경기도 가평군 설악면 한서로 12,경기도 가평군 설악면 한서로,37.66944,127.51413
은대119안전센터,경기도 연천군 전곡읍 평화로 892,경기도 연천군 전곡읍 평화로,38.0315877,127.064577
백학119안전센터,경기도 연천군 백학면 통구리 1067,경기도 연천군 백학면 통구리,38.01404,126.9293
전곡119안전센터,경기도 연천군 전곡읍 전곡로 27,경기도 연천군 전곡읍 전곡로,38.0267735,127.0677922
연천119안전센터,경기도 연천군 연천읍 차현로 92,경기도 연천군 연천읍 차현로,38.0990706,127.0765695
후평119안전센터,강원도 춘천시 후석로 446(후평동),강원도 춘천시 후석로 446(후평동),0,0
소양119안전센터,강원도 춘천시 가연길16번길 16,강원도 춘천시 가연길16번길 16,37.8791527,127.722019
효자119안전센터,강원도 춘천시 효명길 8,강원도 춘천시 효명길 8,37.8703452,127.7282935
대룡119안전센터,강원도 춘천시 동내면 고은길 9,강원도 춘천시 동내면 고은길,37.8419586,127.7760111
강촌119안전센터,강원도 춘천시 소주고개길 680,강원도 춘천시 소주고개길 680,0,0
신북119안전센터,강원도 춘천시 신북읍 신북로 35,강원도 춘천시 신북읍 신북로,37.9670762,127.7353985
혁신119안전센터,강원도 원주시 동부순환로 201(반곡동),강원도 원주시 동부순환로 201(반곡동),0,0
명륜119안전센터,강원도 원주시 명륜동 832,강원도 원주시 명륜동 832,37.3361041,127.9446787
학성119안전센터,강원도 원주시 학성길 122,강원도 원주시 학성길 122,37.3532912,127.9406679
단구119안전센터,강원도 원주시 강변로 255,강원도 원주시 강변로 255,37.3304591,127.9614456
신림119안전센터,강원도 원주시 신림면 치악로 27,강원도 원주시 신림면 치악로,37.2579212,128.0410204
우산119안전센터,강원도 원주시 우산공단길 9,강원도 원주시 우산공단길 9,37.3809954,127.9409512
태장119안전센터,강원도 원주시 태장공단길 4,강원도 원주시 태장공단길 4,37.400912,127.953118
문막119안전센터,강원도 원주시 문막읍 문막시장1길 90,강원도 원주시 문막읍 문막시장1길,37.3069927,127.8168845
흥업119안전센터,강원도 원주시 흥업면 북원로 1569-81,강원도 원주시 흥업면 북원로,37.284318,127.91185
기업119안전센터,강원도 원주시 지정면 가곡리 1359-6,강원도 원주시 지정면 가곡리,37.359958,127.860157
유천119안전센터,강원도 강릉시 선수촌로 64-28(홍제동),강원도 강릉시 선수촌로 64-28(홍제동),0,0
옥천119안전센터,강원도 강릉시 용지로 139(옥천동),강원도 강릉시 용지로 139(옥천동),0,0
경포119안전센터,강원도 강릉시 해안로 502(안현동),강원도 강릉시 해안로 502(안현동),0,0
내곡119안전센터,강원도 강릉시 범일로 660(내곡동),강원도 강릉시 범일로 660(내곡동),0,0
주문진119안전센터,강원도 강릉시 연곡면 연주로 226,강원도 강릉시 연곡면 연주로,0,0
포남119안전센터,강원도 강릉시 하평2길 23(포남동),강원도 강릉시 하평2길 23(포남동),0,0
옥계119안전센터,강원도 강릉시 옥계면 현내시장길 163,강원도 강릉시 옥계면 현내시장길,37.6139801,129.0407521
천곡119안전센터,강원도 동해시 천곡로 120(천곡동),강원도 동해시 천곡로 120(천곡동),0,0
묵호119안전센터,강원도 동해시 일출로 29(발한동),강원도 동해시 일출로 29(발한동),0,0
북삼119안전센터,강원도 동해시 효자남길 33-10(동회동),강원도 동해시 효자남길 33-10(동회동),0,0
북평119안전센터,강원도 동해시 공단1로 21(구호동),강원도 동해시 공단1로 21(구호동),0,0
황지119안전센터,강원도 태백시 태백로 1120(황지동),강원도 태백시 태백로 1120(황지동),0,0
장성119안전센터,강원도 태백시 석공길 16-9,강원도 태백시 석공길 16-9,0,0
철암119안전센터,강원도 태백시 동태백로 552,강원도 태백시 동태백로 552,37.0926733,129.0437214
화전119안전센터,강원도 태백시 태백로 814,강원도 태백시 태백로 814,37.1933749,128.9605229
노학119안전센터,강원도 속초시 미시령로 3226,강원도 속초시 미시령로 3226,38.2039094,128.5246646
영랑119안전센터,강원도 속초시 번영로 188,강원도 속초시 번영로 188,38.2096015,128.5881059
설악119안전센터,강원도 속초시 청봉로5길 37,강원도 속초시 청봉로5길 37,0,0
봉황119안전센터,강원도 삼척시 봉황로 101,강원도 삼척시 봉황로 101,37.4494522,129.1697517
도계119안전센터,강원도 삼척시 도계읍 도계강변3길 16,강원도 삼척시 도계읍 도계강변3길,0,0
원덕119안전센터,강원도 삼척시 원덕읍 삼척로 581,강원도 삼척시 원덕읍 삼척로,37.1771759,129.3333757
근덕119안전센터,강원도 삼척시 근덕면 교가길 37,강원도 삼척시 근덕면 교가길,0,0
홍천119안전센터,강원도 홍천군 홍천읍 공작산로 99,강원도 홍천군 홍천읍 공작산로,37.69293,127.90598
양덕원119안전센터,강원도 홍천군 남면 시동로 46,강원도 홍천군 남면 시동로,37.5840804,127.8879267
서석119안전센터,강원도 홍천군 서석면 풍암길2길 9,강원도 홍천군 서석면 풍암길2길,37.7174381,128.1899889
팔봉119안전센터,강원도 홍천군 서면 팔봉산로 523,강원도 홍천군 서면 팔봉산로,37.6876685,127.6639602
횡성119안전센터,강원도 횡성군 횡성읍 문예로 157,강원도 횡성군 횡성읍 문예로,37.4845118,127.9754235
둔내119안전센터,강원도 횡성군 둔내면 고원남로 42,강원도 횡성군 둔내면 고원남로,37.5024713,128.2112023
우천119안전센터,강원도 횡성군 우천면 서동로 199,강원도 횡성군 우천면 서동로,37.4241058,128.1128039
공근119안전센터,강원도 횡성군 공근면 영서로 130-5,강원도 횡성군 공근면 영서로,37.5778028,127.9046383
영월119안전센터,강원도 영월군 영월읍 영월로 1863,강원도 영월군 영월읍 영월로,37.1820843,128.5061757
주천119안전센터,강원도 영월군 주천면 송학주천로 1467-15,강원도 영월군 주천면 송학주천로,37.25951,128.25698
중동119안전센터,강원도 영월군 중동면 응고개길 10-17,강원도 영월군 중동면 응고개길,0,0
평창119안전센터,강원도 평창군 평창읍 살구실길 10,강원도 평창군 평창읍 살구실길,0,0
진부119안전센터,강원도 평창군 진부면 진부로 37,강원도 평창군 진부면 진부로,37.6436412,128.5695052
봉평119안전센터,강원도 평창군 봉평면 기풍로 107-6,강원도 평창군 봉평면 기풍로,37.6039929,128.3774089
대관령119안전센터,강원도 평창군 대관령면 올림픽로 62-20,강원도 평창군 대관령면 올림픽로,37.6691599,128.7056518
대화119안전센터,강원도 평창군 대화면 평창대로 934,강원도 평창군 대화면 평창대로,37.4487867,128.4368231
조양119안전센터,강원도 정선군 정선읍 녹송로 27,강원도 정선군 정선읍 녹송로,37.3793701,128.6726196
고한119안전센터,강원도 정선군 고한읍 강원남로 6455,강원도 정선군 고한읍 강원남로,37.2013512,128.8821703
신동119안전센터,강원도 정선군 신동읍 의림로 342,강원도 정선군 신동읍 의림로,37.2087988,128.6388645
임계119안전센터,강원도 정선군 임계면 송계4길 9,강원도 정선군 임계면 송계4길,37.4956978,128.8531691
사북119안전센터,강원도 정선군 사북읍 하이원길 29,강원도 정선군 사북읍 하이원길,37.2177037,128.8146016
태봉119안전센터,강원도 철원군 갈말읍 태봉로 1504,강원도 철원군 갈말읍 태봉로,38.1864648,127.300417
동송119안전센터,강원도 철원군 동송읍 금학로 251길 17,강원도 철원군 동송읍 금학로,0,0
김화119안전센터,강원도 철원군 서면 약수로 76,강원도 철원군 서면 약수로,38.2459813,127.4359897
갈말119안전센터,강원도 철원군 갈말읍 명성로 229,강원도 철원군 갈말읍 명성로,0,0
화천119안전센터,강원도 화천군 하남면 위라리길 47,강원도 화천군 하남면 위라리길,0,0
양구119안전센터,강원도 양구군 양구읍 중심로 92,강원도 양구군 양구읍 중심로,38.1006704,127.9925148
인제119안전센터,강원도 인제군 인제읍 비봉로 44번길 71,강원도 인제군 인제읍 비봉로,38.0668482,128.1737459
사내119안전센터,강원도 화천군 사내면 문화마을1길 6,강원도 화천군 사내면 문화마을1길,0,0
원통119안전센터,강원도 인제군 북면 원통로 301,강원도 인제군 북면 원통로,38.1229477,128.2039388
기린119안전센터,강원도 인제군 기린면 대내로 34-14,강원도 인제군 기린면 대내로,37.962836,128.3187248
간성119안전센터,강원도 고성군 간성읍 수성로 37-11,강원도 고성군 간성읍 수성로,38.3771696,128.4672258
동광119안전센터,강원도 고성군 토성면 동해대로 5320,강원도 고성군 토성면 동해대로,38.2303788,128.5690589
거진119안전센터,강원도 고성군 거진읍 수외길 19,강원도 고성군 거진읍 수외길,38.4422024,128.4530052
양양119안전센터,강원도 양양군 양양읍 남대천로 33,강원도 양양군 양양읍 남대천로,38.0698737,128.6249124
하조대119안전센터,강원도 양양군 현북면 동해대로 1155-33,강원도 양양군 현북면 동해대로,0,0
강현119안전센터,강원도 양양군 강현면 장산1길 26,강원도 양양군 강현면 장산1길,0,0
영운119안전센터,충청북도 청주시 상당구 영운로 61,충청북도 청주시 상당구 영운로,36.6234934,127.4958395
사천119안전센터,충청북도 청주시 청원구 밀레니엄1로 63,충청북도 청주시 청원구 밀레니엄1로,36.6803381,127.4785781
북문119안전센터,충청북도 청주시 상당구 상당로 168,충청북도 청주시 상당구 상당로,36.6285384,127.4913238
문의119안전센터,충청북도 청주시 상당구 문의면 문의시내1길 8,충청북도 청주시 상당구 문의면,36.5178005,127.4962429
내수119안전센터,충청북도 청주시 청원구 내수읍 청암로80,충청북도 청주시 청원구 내수읍,36.7239491,127.5354705
오창119안전센터,충청북도 청주시 청원구 오창읍 중심상업2로 30,충청북도 청주시 청원구 오창읍,36.74238405,127.4545023
가경119안전센터,충청북도 청주시 흥덕구 가경로 143,충청북도 청주시 흥덕구 가경로,36.6193814,127.4423722
복대119안전센터,충청북도 청주시 흥덕구 공단로 93,충청북도 청주시 흥덕구 공단로,36.6399633,127.4393235
산남119안전센터,충청북도 청주시 서원구 산미로 70,충청북도 청주시 서원구 산미로,36.6095185,127.4764217
사직119안전센터,충청북도 청주시 서원구 사직대로 229,충청북도 청주시 서원구 사직대로,36.6361529,127.4812497
남이119안전센터,충청북도 청주시 서원구 청남로 866,충청북도 청주시 서원구 청남로,36.5774784,127.4574334
오송119안전센터,충청북도 청주시 흥덕구 오송생명3로 71-5,충청북도 청주시 흥덕구 오송생명3로,36.6229948,127.3294167
목행119안전센터,충청북도 충주시 목행산단7로 9,충청북도 충주시 목행산단7로 9,37.0049629,127.9217336
호암119안전센터,충청북도 충주시 호암대로 13,충청북도 충주시 호암대로 13,36.9592395,127.9280155
연수119안전센터,충청북도 충주시 동수10길 1,충청북도 충주시 동수10길 1,36.982796,127.9352497
서충주119안전센터,충청북도 충주시 대소원면 영평리 538 ,충청북도 충주시 대소원면 영평리,0,0
수안보119안전센터,충청북도 충주시 수안보면 관동길 9-7,충청북도 충주시 수안보면 관동길,36.8486292,127.997615
주덕119안전센터,충청북도 충주시 주덕읍 산양로 35,충청북도 충주시 주덕읍 산양로,0,0
앙성119안전센터,충청북도 충주시 앙성면 가곡로 1019,충청북도 충주시 앙성면 가곡로,37.1087295,127.7326832
의림지119안전센터,충청북도 제천시 신죽하로 164,충청북도 제천시 신죽하로 164,37.160415,128.214153
화산119안전센터,충청북도 제천시 강명길 17,충청북도 제천시 강명길 17,37.1189773,128.2030127
봉양119안전센터,충청북도 제천시 봉양읍 북부로1433,충청북도 제천시 봉양읍 북부로1433,0,0
보은119안전센터,충청북도 보은군 보은읍 남부로 4415,충청북도 보은군 보은읍 남부로,36.481276,127.7230383
속리산119안전센터,충청북도 보은군 속리산면 법주사로 278,충청북도 보은군 속리산면 법주사로,36.5269469,127.8188446
구병산119안전센터,충청북도 보은군 마로면 관기 송현로 48,충청북도 보은군 마로면 관기,36.43564255,127.8160572
옥천119안전센터,충청북도 옥천군 옥천읍 동부로 15,충청북도 옥천군 옥천읍 동부로,36.298229,127.5841619
청산119안전센터,충청북도 옥천군 청산면 남부로 2306,충청북도 옥천군 청산면 남부로,36.30997,127.81643
영동119안전센터,충청북도 영동군 영동읍 영동황간로 174,충청북도 영동군 영동읍 영동황간로,36.1646916,127.7816878
황간119안전센터,충청북도 영동군 황간면 황간로 132,충청북도 영동군 황간면 황간로,36.2329752,127.9066072
학산119안전센터,충청북도 영동군 학산면 서산로 92,충청북도 영동군 학산면 서산로,36.0946438,127.6855925
증평119안전센터,충청북도 증평군 충청대로 1789,충청북도 증평군 충청대로 1789,36.80372,127.61415
진천119안전센터,충청북도  진천군 진천읍 진광로 93,충청북도  진천군 진천읍,36.8548027,127.4414303
덕산119안전센터,충청북도  진천군 덕산읍 초금로 606-1,충청북도  진천군 덕산읍,36.8968631,127.5060402
광혜원119안전센터,충청북도  진천군 광혜원면 화랑길 99,충청북도  진천군 광혜원면,36.9766198,127.4297044
괴산119안전센터,충청북도 괴산군 괴산읍 괴강로 69,충청북도 괴산군 괴산읍 괴강로,36.8093485,127.7963754
청천119안전센터,충청북도 괴산군 청천면 선평길 78-9,충청북도 괴산군 청천면 선평길,0,0
금왕119안전센터,충청북도 음성군 금왕읍 응천서길 11,충청북도 음성군 금왕읍 응천서길,36.9910502,127.5951339
음성119안전센터,충청북도 음성군 음성읍 음성로 122,충청북도 음성군 음성읍 음성로,36.9298361,127.6778317
대소119안전센터,충청북도 음성군 대소면 오산로 74,충청북도 음성군 대소면 오산로,36.9692896,127.4857219
감곡119안전센터,충청북도 음성군 감곡면 음성로 2652,충청북도 음성군 감곡면 음성로,37.1119366,127.6435469
삼성119안전센터,충청북도 음성군 삼성면 금일로 831,충청북도 음성군 삼성면 금일로,37.0149192,127.4972257
단양119안전센터,충청북도 단양군 단양읍 삼봉로 421-56,충청북도 단양군 단양읍 삼봉로,36.9908745,128.3630283
매포119안전센터,충청북도 단양군 매포읍 평동4로 79,충청북도 단양군 매포읍 평동4로,37.0310792,128.2952118
구성119안전센터,충청남도 천안시 동남구 천안대로 580,충청남도 천안시 동남구 천안대로,36.8100927,127.164605
독립119안전센터,충청남도 천안시 동남구 목천읍 독립기념관로1,충청남도 천안시 동남구 목천읍,36.7850119,127.2346742
병천119안전센터,충청남도 천안시 동남구 병천면 아우내순대길 78,충청남도 천안시 동남구 병천면,36.766599,127.3026998
청당119안전센터,충청남도 천안시 동남구 청수14로 91,충청남도 천안시 동남구 청수14로,36.7849292,127.1463165
풍세119안전센터,충청남도 천안시 동남구 풍세면 풍세로 89,충청남도 천안시 동남구 풍세면,0,0
차암119안전센터,충청남도 천안시 서북구 직산읍 4산단2길 32,충청남도 천안시 서북구 직산읍,36.878102,127.1489664
성거119안전센터,충청남도 천안시 서북구 성거읍 천흥8길 11번,충청남도 천안시 서북구 성거읍,36.8780677,127.197568
서부119안전센터,충청남도 천안시 서북구 양지18길 22번,충청남도 천안시 서북구 양지18길,36.8120018,127.1397305
두정119안전센터,충청남도 천안시 서북구 1공단2길 13,충청남도 천안시 서북구 1공단2길,36.8274503,127.1466358
성환119안전센터,충청남도 천안시 서북구 성환읍 성환1로 395번,충청남도 천안시 서북구 성환읍,36.9158842,127.1251269
쌍용119안전센터,충청남도 천안시 서북구 월봉로 78번,충청남도 천안시 서북구 월봉로,36.8032529,127.1189653
입장119안전센터,충청남도 천안시 서북구 입장면 망향로 1107번,충청남도 천안시 서북구 입장면,36.907842,127.2231241
직산119안전센터,충청남도 천안시 서북구 직산읍 직산로 246,충청남도 천안시 서북구 직산읍,36.878102,127.1489664
불당119안전센터,충청남도 천안시 서북구 불당23로 62,충청남도 천안시 서북구 불당23로,36.8194404,127.1011547
웅진119안전센터,충청남도 공주시 무령로 55,충청남도 공주시 무령로 55,36.4582703,127.1375935
유구119안전센터,충청남도 공주시 유구읍 유구외곽로 368,충청남도 공주시 유구읍 유구외곽로,36.5632,126.94115
신관119안전센터,충청남도 공주시 의당로 31,충청남도 공주시 의당로 31,36.47499825,127.1299047
동학사119안전센터,충청남도 공주시 반포면 동학사1로 110,충청남도 공주시 반포면 동학사1로,36.3708603,127.2610073
계룡119안전센터,충청남도 공주시 계룡면 월암송정길 18,충청남도 공주시 계룡면 월암송정길,0,0
정안119안전센터,충청남도 공주시 정안면 광정장터길 18,충청남도 공주시 정안면 광정장터길,36.6080392,127.1238856
명천119안전센터,충청남도 보령시 성주산로 63,충청남도 보령시 성주산로 63,36.3124878,126.6553188
신흑119안전센터,충청남도 보령시 대천항로 205,충청남도 보령시 대천항로 205,36.3160915,126.5169294
웅천119안전센터,충청남도 보령시 웅천읍 충서로 947,충청남도 보령시 웅천읍 충서로,36.21761,126.61279
오천119안전센터,충청남도 보령시 오천면 충청수영로 701,충청남도 보령시 오천면 충청수영로,36.4338182,126.5595363
주포119안전센터,충청남도 보령시 주포면 질재로 47-16,충청남도 보령시 주포면 질재로,36.4061605,126.6063136
모종119안전센터,충청남도 아산시 모종로 77,충청남도 아산시 모종로 77,36.78610885,127.0255772
둔포119안전센터,충청남도 아산시 충무로 1848,충청남도 아산시 충무로 1848,36.9184347,127.0347151
인주119안전센터,충청남도 아산시 인주면 공세길 19,충청남도 아산시 인주면 공세길,36.8811882,126.9154608
신창119안전센터,충청남도 아산시 신창면 순천향로 48,충청남도 아산시 신창면 순천향로,36.76445,126.95626
배방119안전센터,충청남도 아산시 배방읍 배방로 38,충청남도 아산시 배방읍 배방로,36.7711343,127.077983
탕정119안전센터,충청남도 아산시 탕정면 탕정면로 26,충청남도 아산시 탕정면 탕정면로,36.7987897,127.0596663
장재119안전센터,충청남도 아산시 배방읍 용연로 88,충청남도 아산시 배방읍 용연로,36.7847185,127.0931825
예천119안전센터,충청남도 서산시 호수공원 14로 26-4,충청남도 서산시 호수공원 14로,0,0
대산119안전센터,충청남도 서산시 대산읍 망일산로 831-15,충청남도 서산시 대산읍 망일산로,36.9397172,126.4360476
동부119안전센터,충청남도 서산시 학동3로 52,충청남도 서산시 학동3로 52,36.7871614,126.4612419
해미119안전센터,충청남도 서산시 해미면 성지3길 29,충청남도 서산시 해미면 성지3길,36.7101282,126.5428061
부석119안전센터,충청남도 서산시 부석면 강경벌로 10,충청남도 서산시 부석면 강경벌로,36.7185771,126.391907
성연119안전센터,충청남도 서산시 성연면 성연5로 92-31,충청남도 서산시 성연면 성연5로,36.8188156,126.4498905
내동119안전센터,충청남도 논산시 대학로 17,충청남도 논산시 대학로 17,36.1782677,127.1003892
반월119안전센터,충청남도 논산시 해월로 155,충청남도 논산시 해월로 155,36.2090761,127.0967249
강경119안전센터,충청남도 논산시 강경읍 동안로 3 ,충청남도 논산시 강경읍 동안로,36.1411223,127.0577432
연산119안전센터,충청남도 논산시 연산면 관창로 54,충청남도 논산시 연산면 관창로,36.212321,127.1784494
연무119안전센터,충청남도 논산시 연무읍 동안로 1137,충청남도 논산시 연무읍 동안로,36.1347887,127.1004404
엄사119안전센터,충청남도 계룡시 엄사면 문화로32,충청남도 계룡시 엄사면 문화로32,0,0
두마119안전센터,충청남도 계룡시 두마면 사계로 170,충청남도 계룡시 두마면 사계로,36.2684527,127.2666259
당진119안전센터,충청남도 당진시 역천로 838,충청남도 당진시 역천로 838,36.8233158,126.6028811
석문119안전센터,충청남도 당진시 석문면 보덕포로 1069-21,충청남도 당진시 석문면 보덕포로,0,0
합덕119안전센터,충청남도 당진시 우강면 중방로 2,충청남도 당진시 우강면 중방로,36.8146816,126.7641467
송악119안전센터,충청남도 당진시 송악읍 송악로 1019,충청남도 당진시 송악읍 송악로,36.9310321,126.7231061
신평119안전센터,충청남도 당진시 신평면 신평길 133,충청남도 당진시 신평면 신평길,0,0
기지시119안전센터,충청남도 당진시 송악읍 틀모시로 844,충청남도 당진시 송악읍 틀모시로,0,0
금산119안전센터,충청남도 금산군 금산읍 삼풍로 2,충청남도 금산군 금산읍 삼풍로,36.0949282,127.4839708
추부119안전센터,충청남도 금산군 추부면 삼육로 47,충청남도 금산군 추부면 삼육로,36.193736,127.469028
복진119안전센터,충청남도 금산군 진산면 읍내로 49-1,충청남도 금산군 진산면 읍내로,36.1423229,127.3676138
백제119안전센터,충청남도 부여군 규암면 계백로17,충청남도 부여군 규암면 계백로17,0,0
사비119안전센터,충청남도 부여군 부여읍 북포로 29,충청남도 부여군 부여읍 북포로,36.3074308,126.9297082
홍산119안전센터,충청남도 부여군 홍산면 북토로 89,충청남도 부여군 홍산면 북토로,36.2143729,126.7631794
임천119안전센터,충청남도 부여군 임천면 성흥로179번길1,충청남도 부여군 임천면 성흥로179번길1,0,0
외산119안전센터,충청남도 부여군 외산면 만수로 235,충청남도 부여군 외산면 만수로,36.33243,126.7239605
장항119안전센터,충청남도 서천군 장항읍 장항로 37,충청남도 서천군 장항읍 장항로,36.0066253,126.7059214
서천119안전센터,충청남도 서천군 서천읍 충절로49번길 33-8,충청남도 서천군 서천읍 충절로49번길,36.0767681,126.6881811
비인119안전센터,충청남도 서천군 비인면 비인로 141,충청남도 서천군 비인면 비인로,36.1410086,126.6024329
서면119안전센터,충청남도 서천군 서면 부사로 153,충청남도 서천군 서면 부사로,36.19751,126.54766
한산119안전센터,충청남도 서천군 한산면 충절로 1164,충청남도 서천군 한산면 충절로,36.1018168,126.8299764
판교119안전센터,충청남도 서천군 판교면 대백제로 1953-24,충청남도 서천군 판교면 대백제로,36.1608822,126.6910544
청양119안전센터,충청남도 청양군 청양읍 충절로 1187,충청남도 청양군 청양읍 충절로,36.4427794,126.7948886
정산119안전센터,충청남도 청양군 정산면 서정4길 49,충청남도 청양군 정산면 서정4길,36.4164779,126.9481551
구룡119안전센터,충청남도 홍성군 홍성읍 충절로 741,충청남도 홍성군 홍성읍 충절로,36.5883346,126.6873962
광천119안전센터,충청남도 홍성군 광천읍 충서로 354,충청남도 홍성군 광천읍 충서로,36.5087294,126.6179224
옥암119안전센터,충청남도 홍성군 홍성읍 충서로 1258,충청남도 홍성군 홍성읍 충서로,36.598059,126.6530146
내포119안전센터,충청남도 홍성군 홍북읍 의향로 133,충청남도 홍성군 홍북읍 의향로,36.6449169,126.674968
갈산119안전센터,충청남도 홍성군 갈산면 갈산로150번길 16,충청남도 홍성군 갈산면 갈산로150번길,0,0
오가119안전센터,충청남도 예산군 오가면 오가중앙로 111,충청남도 예산군 오가면 오가중앙로,36.6879714,126.7977013
금오119안전센터,충청남도 예산군 예산읍 예당관광로 760,충청남도 예산군 예산읍 예당관광로,36.6691489,126.8247542
삽교119안전센터,충청남도 예산군 삽교읍 삽교로1길 34,충청남도 예산군 삽교읍 삽교로1길,36.6884671,126.7378115
덕산119안전센터,충청남도 예산군 덕산면 도청대로 1160,충청남도 예산군 덕산면 도청대로,36.6868339,126.6764226
태안119안전센터,충청남도 태안군 태안읍 동백로 100,충청남도 태안군 태안읍 동백로,36.757972,126.2893349
안면119안전센터,충청남도 태안군 안면읍 장터로 77,충청남도 태안군 안면읍 장터로,36.5261819,126.3457757
원북119안전센터,충청남도 태안군 원북면 원이로 1031,충청남도 태안군 원북면 원이로,36.8073688,126.2601392
근흥119안전센터,충청남도 태안군 근흥면 신진대교길 201-8,충청남도 태안군 근흥면 신진대교길,0,0
금암119안전센터,전라북도 전주시 덕진구 백제대로 611,전라북도 전주시 덕진구 백제대로,35.8479544,127.156882
아중119안전센터,전라북도 전주시 덕진구 진버들4길 16,전라북도 전주시 덕진구 진버들4길,35.8360758,127.1634337
팔복119안전센터,전라북도 전주시 덕진구 온고을로 430,전라북도 전주시 덕진구 온고을로,35.8483793,127.0865123
전미119안전센터,전라북도 전주시 덕진구 과학로 144,전라북도 전주시 덕진구 과학로,35.8923147,127.1275832
효자119안전센터,전라북도 전주시 완산구 거마평로 73,전라북도 전주시 완산구 거마평로,35.8059331,127.1166416
서부119안전센터,전라북도 전주시 완산구 우전로 228,전라북도 전주시 완산구 우전로,35.8136624,127.1018678
교동119안전센터,전라북도 전주시 완산구 경기전길 183,전라북도 전주시 완산구 경기전길,35.8136478,127.1512078
노송119안전센터,전라북도 전주시 완산구 관선4길 38,전라북도 전주시 완산구 관선4길,35.8218854,127.1563241
평화119안전센터,전라북도 전주시 완산구 평화로 105,전라북도 전주시 완산구 평화로,0,0
임실119안전센터,전라북도 임실군 임실읍 감천로 33,전라북도 임실군 임실읍 감천로,35.6045231,127.2929149
사정119안전센터,전라북도 군산시 번영로 308 ,전라북도 군산시 번영로 308,35.9650964,126.7366661
금동119안전센터,전라북도 군산시 군산창길 1,전라북도 군산시 군산창길 1,35.9932782,126.708745
항만119안전센터,전라북도 군산시 임해로 462,전라북도 군산시 임해로 462,0,0
비응119안전센터,전라북도 군산시 새만금북로 43,전라북도 군산시 새만금북로 43,0,0
지곡119안전센터,전라북도 군산시 백토로 223,전라북도 군산시 백토로 223,0,0
경암119안전센터,전라북도 군산시 구암3.1로 147,전라북도 군산시 구암3.1로 147,35.9817071,126.7355372
산북119안전센터,전라북도 군산시 산북로 71-11,전라북도 군산시 산북로 71-11,0,0
대야119안전센터,전라북도 군산시 대야면 대야관통로 5,전라북도 군산시 대야면 대야관통로,0,0
팔봉119안전센터,전라북도 익산시 무왕로 1338,전라북도 익산시 무왕로 1338,35.9450904,126.9273355
남중119안전센터,전라북도 익산시 인북로 397,전라북도 익산시 인북로 397,0,0
공단119안전센터,전라북도 익산시 선화로 429,전라북도 익산시 선화로 429,0,0
인화119안전센터,전라북도 익산시 목천로 301,전라북도 익산시 목천로 301,0,0
모현119안전센터,전라북도 익산시 배산로 181,전라북도 익산시 배산로 181,0,0
함열119안전센터,전라북도 익산시 함열읍 함열중앙로 133,전라북도 익산시 함열읍 함열중앙로,36.0777025,126.9655619
금마119안전센터,전라북도 익산시 금마면 미륵사지로 130,전라북도 익산시 금마면 미륵사지로,36.0305477,127.0073256
하북119안전센터,전라북도 정읍시 서부산업도로 507-5,전라북도 정읍시 서부산업도로 507-5,35.5869098,126.8571371
시기119안전센터,전라북도 정읍시 정읍남로 1421,전라북도 정읍시 정읍남로 1421,35.54725,126.8279257
신태인119안전센터,전라북도 정읍시 신태인읍 정신로 1241,전라북도 정읍시 신태인읍 정신로,0,0
영원119안전센터,전라북도 정읍시 영원면 영원로 1048,전라북도 정읍시 영원면 영원로,35.6603757,126.7853392
칠보119안전센터,전라북도 정읍시 태산로 2165 ,전라북도 정읍시 태산로 2165,0,0
식정119안전센터,전라북도 남원시 요천로 1965,전라북도 남원시 요천로 1965,35.43849,127.42074
인월119안전센터,전라북도 남원시 인월면 황산로 1828,전라북도 남원시 인월면 황산로,35.4591422,127.5853683
금지119안전센터,전라북도 남원시 금지면 요천로 430,전라북도 남원시 금지면 요천로,35.3181315,127.298915
교동119안전센터,전라북도 김제시 벽성로 278,전라북도 김제시 벽성로 278,35.809167,126.8973583
만경119안전센터,전라북도 김제시 만경읍 만경공단1길 7,전라북도 김제시 만경읍 만경공단1길,0,0
검산119안전센터,전라북도 김제시 검산동 314-2,전라북도 김제시 검산동 314-2,0,0
금산119안전센터,전라북도 김제시 금산면 금산사로 29,전라북도 김제시 금산면 금산사로,0,0
봉동119안전센터,전라북도 완주군 삼례읍 삼봉로 518,전라북도 완주군 삼례읍 삼봉로,35.9179003,127.0837982
삼례119안전센터,전라북도 완주군 삼례읍 삼례역로 27,전라북도 완주군 삼례읍 삼례역로,35.9104952,127.072602
고산119안전센터,전라북도 완주군 고산면 고산로 49,전라북도 완주군 고산면 고산로,35.9743867,127.2170839
혁신119안전센터,전라북도 완주군 이서면 지사제2로 12,전라북도 완주군 이서면 지사제2로,35.8320635,127.0178739
진안119안전센터,전라북도 진안군 진안읍 쇠징계로 9,전라북도 진안군 진안읍 쇠징계로,0,0
마령119안전센터,전라북도 진안군 마령면 임진로 2077-24,전라북도 진안군 마령면 임진로,35.7368497,127.367073
장계119안전센터,전라북도 장수군 장계면 육십령로 136,전라북도 장수군 장계면 육십령로,35.7328616,127.5895163
무주119안전센터,전라북도 무주군 무주읍 당산강변로 126,전라북도 무주군 무주읍 당산강변로,36.0047376,127.6614739
구천동119안전센터,전라북도 무주군 설천면 구천동1로 54,전라북도 무주군 설천면 구천동1로,35.9023986,127.7772249
장수119안전센터,전라북도 장수군 장수읍 호비로 42,전라북도 장수군 장수읍 호비로,35.6500648,127.5210618
순창119안전센터,전라북도 순창군 순창읍 교성로 24,전라북도 순창군 순창읍 교성로,35.3715049,127.136098
고창119안전센터,전라북도 고창군 고창읍 녹두로 1294,전라북도 고창군 고창읍 녹두로,35.434102,126.680089
무장119안전센터,전라북도 고창군 무장면 무장남북로 20-5,전라북도 고창군 무장면 무장남북로,0,0
흥덕119안전센터,전라북도 고창군 흥덕면 문화2길 21,전라북도 고창군 흥덕면 문화2길,35.5173726,126.7026081
대산119안전센터,전라북도 고창군 대산면 공음대산로 932,전라북도 고창군 대산면 공음대산로,35.3385534,126.5998108
부안119안전센터,전라북도 부안군 행안면 변산로 86,전라북도 부안군 행안면 변산로,35.724002,126.6777679
격포119안전센터,전라북도 부안군 변산면 격포항길 64-17,전라북도 부안군 변산면 격포항길,0,0
하당119안전센터,전라남도 목포시 삼향천로 110,전라남도 목포시 삼향천로 110,34.8064286,126.4338119
호남119안전센터,전라남도 목포시 영산로 165,전라남도 목포시 영산로 165,34.8195926,126.4214868
경동119안전센터,전라남도 목포시 유동로 42번길 1,전라남도 목포시 유동로 42번길,0,0
삼학119안전센터,전라남도 목포시 삼학로 218,전라남도 목포시 삼학로 218,34.7898468,126.4057834
연산119안전센터,전라남도 목포시 산정공단로 64,전라남도 목포시 산정공단로 64,0,0
학동119안전센터,전라남도 여수시 망마로 20,전라남도 여수시 망마로 20,34.7591213,127.6682841
평여119안전센터,전라남도 여수시 여수산단로 321(평여동),전라남도 여수시 여수산단로 321(평여동),0,0
소라119안전센터,전라남도 여수시 소라면 여순로 297,전라남도 여수시 소라면 여순로,34.8096823,127.626649
연등119안전센터,전라남도 여수시 좌수영로 162(연등동),전라남도 여수시 좌수영로 162(연등동),0,0
여서119안전센터,전라남도 여수시 문수로 131(문수동),전라남도 여수시 문수로 131(문수동),34.7569631,127.7079415
봉산119안전센터,전라남도 여수시 어항단지로 222-5(남산동),전라남도 여수시 어항단지로 222-5(남산동),0,0
돌산119안전센터,전라남도 여수시 돌산읍 강남로 34,전라남도 여수시 돌산읍 강남로,0,0
서면119안전센터,전라남도 순천시 서면 삼산로 281,전라남도 순천시 서면 삼산로,0,0
저전119안전센터,전라남도 순천시 중앙로 19,전라남도 순천시 중앙로 19,34.9755956,127.4821817
왕조119안전센터,전라남도 순천시 기적의도서관 1길 30,전라남도 순천시 기적의도서관 1길,0,0
연향119안전센터,전라남도 순천시 연향1로 26,전라남도 순천시 연향1로 26,34.9448267,127.5139109
승주119안전센터,전라남도 순천시 승주읍 승평길 19-17,전라남도 순천시 승주읍 승평길,0,0
구례119안전센터,전라남도 구례군 구례읍 양정4길 37,전라남도 구례군 구례읍 양정4길,35.2030672,127.4664142
해룡119안전센터,전라남도 순천시 해룡면 율촌산단5로 17,전라남도 순천시 해룡면 율촌산단5로,0,0
신대119안전센터,전라남도 순천시 해룡면 매안로142,전라남도 순천시 해룡면 매안로142,0,0
경현119안전센터,전라남도 나주시 예향로 4201,전라남도 나주시 예향로 4201,34.9929715,126.7107413
이창119안전센터,전라남도 나주시 이창택지길 6-13,전라남도 나주시 이창택지길 6-13,34.9970052,126.7050242
남평119안전센터,전라남도 나주시 남평읍 지석로 106,전라남도 나주시 남평읍 지석로,35.0409658,126.8484503
빛가람119안전센터,전라남도 나주시 그린로 296,전라남도 나주시 그린로 296,35.01311505,126.7960805
중마119안전센터,전라남도 광양시 중마중앙로 109,전라남도 광양시 중마중앙로 109,34.94007405,127.6977004
금호119안전센터,전라남도 광양시 희망길 12-12(금호동),전라남도 광양시 희망길 12-12(금호동),0,0
광양119안전센터,전라남도 광양시 광양읍 서변천로 175,전라남도 광양시 광양읍 서변천로,0,0
광영119안전센터,전라남도 광양시 금영로 87(광영동),전라남도 광양시 금영로 87(광영동),0,0
담양119안전센터,전라남도 담양군 담양읍 추성로 1232,전라남도 담양군 담양읍 추성로,35.3197949,126.9811632
고서119안전센터,전라남도 고서면 창평헌로 398,전라남도 고서면 창평헌로 398,0,0
곡성119안전센터,전라남도 곡성군 곡성읍 학교로 7,전라남도 곡성군 곡성읍 학교로,35.2828391,127.2904967
옥과119안전센터,전라남도 곡성군 옥과면 리문6길 29,전라남도 곡성군 옥과면 리문6길,35.2757756,127.1369419
고흥119안전센터,전라남도 고흥군 풍양면 고흥로 1330,전라남도 고흥군 풍양면 고흥로,34.5753038,127.2400049
도양119안전센터,전라남도 고흥군 도양읍 녹동신항5길 4,전라남도 고흥군 도양읍 녹동신항5길,34.5262253,127.1452901
과역119안전센터,전라남도 고흥군 과역면 과역로 974,전라남도 고흥군 과역면 과역로,34.6882029,127.3371948
벌교119안전센터,전라남도 보성군 벌교읍 녹색로 5247,전라남도 보성군 벌교읍 녹색로,34.8369078,127.3483249
보성119안전센터,전라남도 보성군 보성읍 송재로 160,전라남도 보성군 보성읍 송재로,34.7724622,127.0809975
홍교119안전센터,전라남도 보성군 벌교읍 홍암로 116-4,전라남도 보성군 벌교읍 홍암로,34.8430318,127.3465132
화순119안전센터,전라남도 화순군 화순읍 학포로 2750,전라남도 화순군 화순읍 학포로,35.0501233,126.9671178
능주119안전센터,전라남도 화순군 능주면 지석로 1428,전라남도 화순군 능주면 지석로,34.9981431,126.9337711
동복119안전센터,전라남도 화순군 동복면 천변길 7,전라남도 화순군 동복면 천변길,35.0701967,127.1256168
장흥119안전센터,전라남도 장흥군 장흥읍 북부로 138,전라남도 장흥군 장흥읍 북부로,34.6872478,126.9109862
정남진119안전센터,전라남도 장흥군 관산읍 관산우회로 103,전라남도 장흥군 관산읍 관산우회로,34.5600403,126.9372312
강진119안전센터,전라남도 강진군 군동면 중앙로 223,전라남도 강진군 군동면 중앙로,0,0
성전119안전센터,전라남도 강진군 성전면 송학리 837-2,전라남도 강진군 성전면 송학리,34.6741252,126.740316
해남119안전센터,전라남도 해남군 해남읍 교육청길 82,전라남도 해남군 해남읍 교육청길,0,0
땅끝119안전센터,전라남도 해남군 송지면 미야길 237-3,전라남도 해남군 송지면 미야길,34.3846257,126.5169752
삼호119안전센터,전라남도 영암군 삼호읍 나불로 192,전라남도 영암군 삼호읍 나불로,34.7695466,126.4477722
영암119안전센터,전라남도 영암군 영암읍 월출로 46,전라남도 영암군 영암읍 월출로,34.8199205,126.6934778
신북119안전센터,전라남도 영암군 신북면 모산리 661-1,전라남도 영암군 신북면 모산리,0,0
무안119안전센터,전라남도 무안군 무안읍 공항로 133,전라남도 무안군 무안읍 공항로,35.0074151,126.4452769
일로119안전센터,전라남도 무안군 일로읍 삼일로 493-1,전라남도 무안군 일로읍 삼일로,34.850135,126.4888607
해제119안전센터,전라남도 무안군 해제면 현해로 1621,전라남도 무안군 해제면 현해로,35.111324,126.3043395
남악119안전센터,전라남도 무안군 삼향읍 남악5로72번길81-18,전라남도 무안군 삼향읍 남악5로72번길81-18,0,0
함평119안전센터,전라남도 함평군 대동면 함장로 1202-93,전라남도 함평군 대동면 함장로,35.0798001,126.5481286
나산119안전센터,전라남도 함평군 나산면 함장로 2786,전라남도 함평군 나산면 함장로,35.0981453,126.5813668
영광119안전센터,전라남도 영광군 영광읍 함영로 3508,전라남도 영광군 영광읍 함영로,35.2645128,126.509761
홍농119안전센터,전라남도 영광군 홍농읍 홍농로 543,전라남도 영광군 홍농읍 홍농로,35.3929609,126.4444453
장성119안전센터,전라남도 장성군 장성읍 단풍로 204,전라남도 장성군 장성읍 단풍로,35.3417758,126.8159039
삼계119안전센터,전라남도 장성군 삼계면 영장로 1632,전라남도 장성군 삼계면 영장로,35.2548344,126.6698864
완도119안전센터,전라남도 완도군 완도읍 농공단지길 7,전라남도 완도군 완도읍 농공단지길,34.3394334,126.7381037
고금119안전센터,전라남도 완도군 고금면 고금동로 266,전라남도 완도군 고금면 고금동로,34.40158,126.83215
진도119안전센터,전라남도 진도군 진도대로 6945,전라남도 진도군 진도대로 6945,34.5582202,126.2963437
임회119안전센터,전라남도 진도군 임회면 십일시장길 34,전라남도 진도군 임회면 십일시장길,0,0
신안119안전센터,전라남도 신안군 암태면 단고리 973-6,전라남도 신안군 암태면 단고리,0,0
지도119안전센터,전라남도 신안군 지도읍 해제지도로 1304,전라남도 신안군 지도읍 해제지도로,0,0
덕산119안전센터,경상북도 포항시 북구 중앙로 332,경상북도 포항시 북구 중앙로,36.0484407,129.3631031
두호119안전센터,경상북도 포항시 북구 삼호로 305,경상북도 포항시 북구 삼호로,36.0427183,129.3675923
흥해119안전센터,경상북도 포항시 북구 흥해읍 중성로 67,경상북도 포항시 북구 흥해읍,36.1126,129.35397
장량119안전센터,경상북도 포항시 북구 법원로 158,경상북도 포항시 북구 법원로,36.0817098,129.3855184
기계119안전센터,경상북도 포항시 북구 기계면 기계로 371,경상북도 포항시 북구 기계면,36.08404,129.18284
일월119안전센터,경상북도 포항시 남구 동해안로 5890,경상북도 포항시 남구 동해안로,35.9914379,129.4379353
해도119안전센터,경상북도 포항시 남구 중앙로 118,경상북도 포항시 남구 중앙로,36.0236569,129.3684629
제철119안전센터,경상북도 포항시 남구 철강로 360,경상북도 포항시 남구 철강로,35.9851339,129.3655337
연일119안전센터,경상북도 포항시 남구 연일읍 철강로 10,경상북도 포항시 남구 연일읍,35.99816,129.32687
효자119안전센터,경상북도 포항시 남구 지곡로212번길 45,경상북도 포항시 남구 지곡로212번길,36.0263736,129.3264646
오천119안전센터,경상북도 포항시 남구 오천읍 해병로 369,경상북도 포항시 남구 오천읍,35.93673,129.40736
구룡포119안전센터,경상북도 포항시 남구 구룡포읍 호미로 265,경상북도 포항시 남구 구룡포읍,35.98434,129.53674
울릉119안전센터,경상북도 울릉군 울릉읍 울릉순환로 415,경상북도 울릉군 울릉읍 울릉순환로,37.4667019,130.8799866
황오119안전센터,경상북도 경주시 알천남로 276,경상북도 경주시 알천남로 276,35.8413918,129.2364842
동부119안전센터,경상북도 경주시 중앙로 59,경상북도 경주시 중앙로 59,35.8432463,129.2116586
보문119안전센터,경상북도 경주시 경감로 587-8,경상북도 경주시 경감로 587-8,35.8331602,129.2926403
안강119안전센터,경상북도 경주시 안강읍 안강중앙로 146,경상북도 경주시 안강읍 안강중앙로,35.9932552,129.2173644
감포119안전센터,경상북도 경주시 감포읍 동해안로 2153,경상북도 경주시 감포읍 동해안로,35.78871,129.49064
외동119안전센터,경상북도 경주시 외동읍 입실로1길 78-15,경상북도 경주시 외동읍 입실로1길,35.7147985,129.3268933
건천119안전센터,경상북도 경주시 건천읍 내서로 1065,경상북도 경주시 건천읍 내서로,35.8244646,129.1311149
용황119안전센터,경상북도 경주시 공단로 25,경상북도 경주시 공단로 25,35.8733799,129.2199469
불국사119안전센터,경상북도 경주시 불국신택지4길 4,경상북도 경주시 불국신택지4길 4,35.7843574,129.3266715
양금119안전센터,경상북도 김천시 강변로 219(양천동),경상북도 김천시 강변로 219(양천동),0,0
다수119안전센터,경상북도 김천시 영남대로 1246,경상북도 김천시 영남대로 1246,36.118403,128.1465379
대광119안전센터,경상북도 김천시 공단로 152-36,경상북도 김천시 공단로 152-36,36.1388985,128.1394378
지례119안전센터,경상북도 김천시 지례면 장터길 115,경상북도 김천시 지례면 장터길,35.9875035,128.0291773
아포119안전센터,경상북도 김천시 아포읍 아포공단길 45,경상북도 김천시 아포읍 아포공단길,0,0
율곡119안전센터,경상북도 김천시 혁신7로 46,경상북도 김천시 혁신7로 46,36.1259404,128.1784456
법흥119안전센터,경상북도 안동시 육사로 301,경상북도 안동시 육사로 301,36.5584306,128.721505
용상119안전센터,경상북도 안동시 마들6길 27,경상북도 안동시 마들6길 27,36.55048,128.76109
풍산119안전센터,경상북도 안동시 풍산읍 풍산태사로 1162,경상북도 안동시 풍산읍 풍산태사로,36.5871116,128.5517043
옥동119안전센터,경상북도 안동시 광명로 85,경상북도 안동시 광명로 85,36.5577577,128.6905016
도산119안전센터,경상북도 안동시 도산면 퇴계로 2171,경상북도 안동시 도산면 퇴계로,36.7591035,128.8347626
청송119안전센터,경상북도 청송군 청송읍 길안청송로 1630,경상북도 청송군 청송읍 길안청송로,36.43432,129.03854
진보119안전센터,경상북도 청송군 진보면 청송로 6346,경상북도 청송군 진보면 청송로,36.5055297,129.0355295
영양119안전센터,경상북도 영양군 영양읍 군민회관길 42-14,경상북도 영양군 영양읍 군민회관길,0,0
입암119안전센터,경상북도 영양군 입암면 입암로 153,경상북도 영양군 입암면 입암로,36.59885,129.08678
공단119안전센터,경상북도 구미시 수출대로 112,경상북도 구미시 수출대로 112,36.1108886,128.3756152
송정119안전센터,경상북도 구미시 백산로 207,경상북도 구미시 백산로 207,36.1234589,128.3365996
원평119안전센터,경상북도 구미시 산업로 174,경상북도 구미시 산업로 174,36.1300028,128.3388905
봉곡119안전센터,경상북도 구미시 봉곡동로 48,경상북도 구미시 봉곡동로 48,36.1536205,128.3148572
인동119안전센터,경상북도 구미시 이계북로 147,경상북도 구미시 이계북로 147,36.1055788,128.4023045
선산119안전센터,경상북도 구미시 선산읍 선산대로 1400-13,경상북도 구미시 선산읍 선산대로,36.238238,128.3027271
고아119안전센터,경상북도 구미시 고아읍 선산대로 821,경상북도 구미시 고아읍 선산대로,36.2147527,128.3200111
해평119안전센터,경상북도 구미시 해평면 강동로 1663,경상북도 구미시 해평면 강동로,36.2421,128.35007
상림119안전센터,경상북도 구미시 상림로 45,경상북도 구미시 상림로 45,36.1016223,128.3630006
옥계119안전센터,경상북도 구미시 산동면 산호대로41길 4,경상북도 구미시 산동면 산호대로41길,0,0
문수119안전센터,경상북도 영주시 문수면 적서로448번길 17,경상북도 영주시 문수면 적서로448번길,0,0
가흥119안전센터,경상북도 영주시 선비로 181,경상북도 영주시 선비로 181,36.8300684,128.6151256
풍기119안전센터,경상북도 영주시 풍기읍 기주로 159,경상북도 영주시 풍기읍 기주로,36.8703447,128.5248245
봉화119안전센터,경상북도 봉화군 봉화읍 문수로 42,경상북도 봉화군 봉화읍 문수로,36.9195187,128.7385881
춘양119안전센터,경상북도 봉화군 춘양면 소천로 22,경상북도 봉화군 춘양면 소천로,36.9217843,128.9205138
명호119안전센터,경상북도 봉화군 명호면 도천길 18-46,경상북도 봉화군 명호면 도천길,36.8578256,128.9002532
동부119안전센터,경상북도 영천시 호국로 187,경상북도 영천시 호국로 187,35.9901865,128.9985253
남부119안전센터,경상북도 영천시 한방로 176-0,경상북도 영천시 한방로 176-0,35.9431999,128.9300562
금호119안전센터,경상북도 영천시 금호읍 오계공단길 5,경상북도 영천시 금호읍 오계공단길,0,0
신녕119안전센터,경상북도 영천시 신녕면 어릿골길 11,경상북도 영천시 신녕면 어릿골길,36.0446217,128.774413
서성119안전센터,경상북도 상주시 상산로 322,경상북도 상주시 상산로 322,36.3981763,128.1581772
함창119안전센터,경상북도 상주시 함창읍 가야로 46-1,경상북도 상주시 함창읍 가야로,36.5667688,128.1785561
청리119안전센터,경상북도 상주시 청리면 마공공단로 152,경상북도 상주시 청리면 마공공단로,36.3215098,128.1266267
화서119안전센터,경상북도 상주시 화서면 상현무동길 5,경상북도 상주시 화서면 상현무동길,36.4481405,127.9450285
점촌119안전센터,경상북도 문경시 중앙로 305,경상북도 문경시 중앙로 305,36.601023,128.2027179
모전119안전센터,경상북도 문경시 모전로 173,경상북도 문경시 모전로 173,36.5999814,128.1865896
가은119안전센터,경상북도 문경시 가은읍 가은로 126,경상북도 문경시 가은읍 가은로,36.64067,128.05875
문경119안전센터,경상북도 문경시 문경읍 새재로 501,경상북도 문경시 문경읍 새재로,36.7567366,128.0781913
압량119안전센터,경상북도 경산시 압량읍 김유신로 12,경상북도 경산시 압량읍 김유신로,35.8399408,128.7694908
중앙119안전센터,경상북도 경산시 장산로 143,경상북도 경산시 장산로 143,35.8184513,128.7411369
중산119안전센터,경상북도 경산시 펜타힐즈4로 1,경상북도 경산시 펜타힐즈4로 1,35.8306433,128.7200198
하양119안전센터,경상북도 경산시 하양읍 대경로 793,경상북도 경산시 하양읍 대경로,35.8997332,128.7954106
진량119안전센터,경상북도 경산시 진량읍 공단2로 72,경상북도 경산시 진량읍 공단2로,35.8715009,128.8249284
자인119안전센터,경상북도 경산시 자인면 금학로 25-11,경상북도 경산시 자인면 금학로,35.8204817,128.8238024
봉양119안전센터,경상북도 의성군 봉양면 대로 4741,경상북도 의성군 봉양면 대로,0,0
의성119안전센터,경상북도 의성군 의성읍 홍술로 187,경상북도 의성군 의성읍 홍술로,36.3562737,128.6935168
안계119안전센터,경상북도 의성군 안계면 안계길 100,경상북도 의성군 안계면 안계길,36.38425,128.4375462
군위119안전센터,경상북도 군위군 군위읍 군위공단길 65,경상북도 군위군 군위읍 군위공단길,0,0
의흥119안전센터,경상북도 군위군 의흥면 읍내길 23,경상북도 군위군 의흥면 읍내길,36.1749887,128.7157953
영덕119안전센터,경상북도 영덕군 영덕읍 경동로 8401,경상북도 영덕군 영덕읍 경동로,36.4157398,129.372212
강구119안전센터,경상북도 영덕군 강구면 강산로 38,경상북도 영덕군 강구면 강산로,36.37763,129.33342
영해119안전센터,경상북도 영덕군 영해면 창수영해로 481,경상북도 영덕군 영해면 창수영해로,36.5423758,129.3812255
청도119안전센터,경상북도 청도군 청도읍 중앙로 192-34,경상북도 청도군 청도읍 중앙로,35.6433542,128.7461794
풍각119안전센터,경상북도 청도군 풍각면 송서로 64,경상북도 청도군 풍각면 송서로,35.63934,128.61948
금천119안전센터,경상북도 청도군 금천면 청려로 4363,경상북도 청도군 금천면 청려로,35.6945122,128.8881907
대가야119안전센터,경상북도 고령군 대가야읍 벽화길18,경상북도 고령군 대가야읍 벽화길18,0,0
다산119안전센터,경상북도 고령군 다산면 다산로 506,경상북도 고령군 다산면 다산로,35.8146633,128.4312497
성주119안전센터,경상북도 성주군 성주읍 주산로 193,경상북도 성주군 성주읍 주산로,35.9317817,128.2998771
선남119안전센터,경상북도 성주군 선남면 도성3길 39-17,경상북도 성주군 선남면 도성3길,0,0
왜관119안전센터,경상북도 칠곡군 기산면 칠곡대로 1216,경상북도 칠곡군 기산면 칠곡대로,35.9927198,128.3872542
북삼119안전센터,경상북도 칠곡군 북삼읍 안산2길 46,경상북도 칠곡군 북삼읍 안산2길,36.0663159,128.3366236
석적119안전센터,경상북도 칠곡군 석적읍 유학로 140,경상북도 칠곡군 석적읍 유학로,36.0791924,128.4123174
금산119안전센터,경상북도 칠곡군 왜관읍 공단로 194,경상북도 칠곡군 왜관읍 공단로,35.9771037,128.4263727
가산119안전센터,경상북도 칠곡군 가산면 다부원1길 57,경상북도 칠곡군 가산면 다부원1길,0,0
동명119안전센터,경상북도 칠곡군 동명면 한티로 216,경상북도 칠곡군 동명면 한티로,35.9839718,128.5834491
예천119안전센터,경상북도 예천군 예천읍 양궁로 61-12,경상북도 예천군 예천읍 양궁로,36.6477714,128.4616763
지보119안전센터,경상북도 예천군 지보면 지보로 247,경상북도 예천군 지보면 지보로,36.54403,128.38695
도청119안전센터,경상북도 예천군 호명면 도청대로 19,경상북도 예천군 호명면 도청대로,36.5730862,128.4940079
울진119안전센터,경상북도 울진군 울진읍 울진북로 508,경상북도 울진군 울진읍 울진북로,37.0132541,129.402585
죽변119안전센터,경상북도 울진군 죽변면 하죽로 1841,경상북도 울진군 죽변면 하죽로,37.05396,129.38071
북면119안전센터,경상북도 울진군 북면 장터길 69,경상북도 울진군 북면 장터길,37.1019012,129.3749156
후포119안전센터,경상북도 울진군 후포면 실배길 28-1,경상북도 울진군 후포면 실배길,0,0
온정119안전센터,경상북도 울진군 온정면 백암온천로 1315,경상북도 울진군 온정면 백암온천로,36.72329,129.41392
상대119안전센터,경상남도 진주시 동진로 249,경상남도 진주시 동진로 249,35.1793886,128.1528881
중앙119안전센터,경상남도 양산시 북장대로64번길 14,경상남도 양산시 북장대로64번길 14,0,0
천전119안전센터,경상남도 진주시 강남로 167번길 16,경상남도 진주시 강남로 167번길,0,0
평거119안전센터,경상남도 진주시 순환로 565,경상남도 진주시 순환로 565,35.1441007,128.0947596
문산119안전센터,경상남도 진주시 문산읍 월아산로 979,경상남도 진주시 문산읍 월아산로,35.1792036,128.1553801
금산119안전센터,경상남도 진주시 금산면 중천리 585-2,경상남도 진주시 금산면 중천리,0,0
죽림119안전센터,경상남도 통영시 광도면 죽림4로 49,경상남도 통영시 광도면 죽림4로,0,0
무전119안전센터,경상남도 통영시 원문로 71,경상남도 통영시 원문로 71,34.85925515,128.4208257
서호119안전센터,경상남도 통영시 중앙로 91-8,경상남도 통영시 중앙로 91-8,34.8598678,128.4289015
도남119안전센터,경상남도 통영시 도남로257,경상남도 통영시 도남로257,0,0
동금119안전센터,경상남도 사천시 남일로 29,경상남도 사천시 남일로 29,34.9332925,128.0798148
사천119안전센터,경상남도 사천시 사천읍 무산로 21,경상남도 사천시 사천읍 무산로,35.0889751,128.0901642
사남119안전센터,경상남도 사천시 사남면 공단2로 53,경상남도 사천시 사남면 공단2로,0,0
곤양119안전센터,경상남도 사천시 곤양면 곤북로 64,경상남도 사천시 곤양면 곤북로,35.05468,127.94721
삼정119안전센터,경상남도 김해시 김해대로 2507,경상남도 김해시 김해대로 2507,35.2376953,128.871619
동상119안전센터,경상남도 김해시 구지로 179,경상남도 김해시 구지로 179,35.2386989,128.880135
내외119안전센터,경상남도 김해시 내외로 77,경상남도 김해시 내외로 77,35.23493475,128.8655514
상동119안전센터,경상남도 김해시 상동면 상동로 637,경상남도 김해시 상동면 상동로,35.3148665,128.9547416
생림119안전센터,경상남도 김해시 생림면 봉림로 106,경상남도 김해시 생림면 봉림로,35.3306468,128.8477448
북부119안전센터,경상남도 김해시 해반천로 166,경상남도 김해시 해반천로 166,35.2638556,128.86693
대동119안전센터,경상남도 김해시 대동면 동남로 41번길 19,경상남도 김해시 대동면 동남로,35.254258,128.9993964
진례119안전센터,경상남도 김해시 진례면 서부로 730,경상남도 김해시 진례면 서부로,35.221948,128.7873559
장유119안전센터,경상남도 김해시 번화2로 12,경상남도 김해시 번화2로 12,35.1943491,128.8039466
진영119안전센터,경상남도 김해시 진영읍 장등로 4,경상남도 김해시 진영읍 장등로,35.3121087,128.7329764
주촌119안전센터,경상남도 김해시 주촌면 주선로 29,경상남도 김해시 주촌면 주선로,0,0
한림119안전센터,경상남도 김해시 한림면 한림로 401번길 50,경상남도 김해시 한림면 한림로,35.3169685,128.8075473
율하119안전센터,경상남도 김해시 율하4로 112,경상남도 김해시 율하4로 112,35.1781252,128.824234
교동119안전센터,경상남도 밀양시 밀양대공원로 66,경상남도 밀양시 밀양대공원로 66,35.5019652,128.757759
가곡119안전센터,경상남도 밀양시 용두로 5,경상남도 밀양시 용두로 5,35.4786637,128.7652973
하남119안전센터,경상남도 밀양시 하남읍 명례로 108,경상남도 밀양시 하남읍 명례로,35.3566261,128.7597524
삼랑진119안전센터,경상남도 밀양시 삼랑진읍 삼랑진로 16-3,경상남도 밀양시 삼랑진읍 삼랑진로,35.42653,128.80771
산동119안전센터,경상남도 밀양시 산외면 단산길 2,경상남도 밀양시 산외면 단산길,0,0
무안119안전센터,경상남도 밀양시 무안면 사명로 541,경상남도 밀양시 무안면 사명로,35.47679,128.65559
옥포119안전센터,경상남도 거제시 진목로 1,경상남도 거제시 진목로 1,34.89615145,128.6861734
장승포119안전센터,경상남도 거제시 능포로 77,경상남도 거제시 능포로 77,34.8713638,128.7289409
신현119안전센터,경상남도 거제시 계룡로 52,경상남도 거제시 계룡로 52,34.87581695,128.6268709
거제119안전센터,경상남도 거제시 거제면 거제남서로 3429,경상남도 거제시 거제면 거제남서로,34.8483631,128.5875618
연초119안전센터,경상남도 거제시 연초면 거제북로1,경상남도 거제시 연초면 거제북로1,0,0
동부119안전센터,경상남도 거제시 동부면 거제대로 957,경상남도 거제시 동부면 거제대로,34.7826902,128.6590355
사등119안전센터,경상남도 거제시 사등면 덕호해안길 63 ,경상남도 거제시 사등면 덕호해안길,34.8786451,128.4747647
물금119안전센터,경상남도 양산시 물금읍 황산로 719,경상남도 양산시 물금읍 황산로,35.3389649,129.0196027
중앙119안전센터,경상남도 양산시 신기로 13,경상남도 양산시 신기로 13,35.3568123,129.0444284
웅상119안전센터,경상남도 양산시 웅상대로 1120,경상남도 양산시 웅상대로 1120,35.3980097,129.1624805
하북119안전센터,경상남도 양산시 하북면 양산대로 2255-38,경상남도 양산시 하북면 양산대로,35.4851,129.08581
중부119안전센터,경상남도 양산시 양산역 6길 27,경상남도 양산시 양산역 6길,0,0
평산119안전센터,경상남도 양산시 내연4길 9,경상남도 양산시 내연4길 9,35.3752765,129.1468517
상북119안전센터,경상남도 양산시 석계로 37,경상남도 양산시 석계로 37,35.4092071,129.0617401
의령119안전센터,경상남도 의령군 의령읍 의병로 108-17,경상남도 의령군 의령읍 의병로,35.3191965,128.2572271
부림119안전센터,경상남도 의령군 부림면 대한로 1666,경상남도 의령군 부림면 대한로,35.4642496,128.3129093
가야119안전센터,경상남도 함안군 가야읍 선왕길 59,경상남도 함안군 가야읍 선왕길,0,0
칠원119안전센터,경상남도 함안군 칠원읍 용산2길 121,경상남도 함안군 칠원읍 용산2길,0,0
군북119안전센터,경상남도 함안군 군북면 함마대로 760,경상남도 함안군 군북면 함마대로,35.27736,128.32102
창녕119안전센터,경상남도 창녕군 대지면 우포2로 1097,경상남도 창녕군 대지면 우포2로,35.5489583,128.4819316
남지119안전센터,경상남도 창녕군 남지읍 동포로 64,경상남도 창녕군 남지읍 동포로,0,0
영산119안전센터,경상남도 창녕군 영산면 영산장마로 697,경상남도 창녕군 영산면 영산장마로,35.458831,128.4942109
부곡119안전센터,경상남도 창녕군 부곡면 원앙로 184,경상남도 창녕군 부곡면 원앙로,35.4364002,128.5929645
고성119안전센터,경상남도 고성군 고성읍 남해안대로 2670,경상남도 고성군 고성읍 남해안대로,34.9935619,128.3280286
회화119안전센터,경상남도 고성군 회화면 영희로 2211,경상남도 고성군 회화면 영희로,0,0
거류119안전센터,경상남도 고성군 거류면 봉암 1길 9,경상남도 고성군 거류면 봉암,35.0063323,128.4029606
남해119안전센터,경상남도 남해군 남해읍 스포츠로 81,경상남도 남해군 남해읍 스포츠로,34.8318205,127.8957882
삼동119안전센터,경상남도 남해군 삼동면 동부대로 1795,경상남도 남해군 삼동면 동부대로,34.7949864,128.0463157
미조119안전센터,경상남도 남해군 미조면 동부대로 25,경상남도 남해군 미조면 동부대로,34.7399909,128.0431018
금성119안전센터,경상남도 하동군 금성면 금성로 15,경상남도 하동군 금성면 금성로,34.9609308,127.7860106
하동119안전센터,경상남도 하동군 적량면 공설운동장로 169,경상남도 하동군 적량면 공설운동장로,0,0
진교119안전센터,경상남도 하동군 진교면 진양로 27,경상남도 하동군 진교면 진양로,35.0338399,127.8736952
화개119안전센터,경상남도 하동군 화개면 쌍계로58 ,경상남도 하동군 화개면 쌍계로58,0,0
산청119안전센터,경상남도 산청군 산청읍 중앙로 76-7,경상남도 산청군 산청읍 중앙로,35.4146159,127.8854428
단성119안전센터,경상남도 산청군 단성면 사직단로 447-8,경상남도 산청군 단성면 사직단로,0,0
함양119안전센터,경상남도 함양군 함양읍 고운로 161-41,경상남도 함양군 함양읍 고운로,35.5201703,127.72609
안의119안전센터,경상남도 함양군 안의면 금성길 19,경상남도 함양군 안의면 금성길,35.6295809,127.8104733
대평119안전센터,경상남도 거창군 거창읍 거함대로 3324,경상남도 거창군 거창읍 거함대로,35.6882248,127.8853435
위천119안전센터,경상남도 거창군 위천면 원학길 321,경상남도 거창군 위천면 원학길,35.748902,127.8338267
가조119안전센터,경상남도 거창군 가조면 마상3길 32,경상남도 거창군 가조면 마상3길,0,0
합천119안전센터,경상남도 합천군 합천읍 인덕로 2453,경상남도 합천군 합천읍 인덕로,35.58873,128.14678
초계119안전센터,경상남도 합천군 초계면 양동로 6-16,경상남도 합천군 초계면 양동로,35.5471749,128.2539719
북부119안전센터,경상남도 합천군 야로면 월광리 241-4,경상남도 합천군 야로면 월광리,0,0
삼가119안전센터,경상남도 합천군 삼가면 삼가로 287,경상남도 합천군 삼가면 삼가로,35.4191559,128.1310727
이도119안전센터,제주특별자치도 제주시 중앙로 342,제주특별자치도 제주시 중앙로 342,33.491093,126.53681
삼도119안전센터,제주특별자치도 제주시 탑동로 101,제주특별자치도 제주시 탑동로 101,33.5135137,126.5181572
오라119안전센터,제주특별자치도 제주시 서광로2길 24,제주특별자치도 제주시 서광로2길 24,33.4956749,126.5189356
연동119안전센터,제주특별자치도 제주시 문송길 14,제주특별자치도 제주시 문송길 14,33.486129,126.4986581
항만119안전센터,제주특별자치도 제주시 임항로 146,제주특별자치도 제주시 임항로 146,33.5197222,126.5388889
화북119안전센터,제주특별자치도 제주시 동화로1길 3,제주특별자치도 제주시 동화로1길 3,33.5181186,126.5775655
노형119안전센터,제주특별자치도 제주시 광평동로 2,제주특별자치도 제주시 광평동로 2,33.481,126.47215
외도119안전센터,제주특별자치도 제주시 통물길 75,제주특별자치도 제주시 통물길 75,0,0
아라119안전센터,제주특별자치도 제주시 사송길 116,제주특별자치도 제주시 사송길 116,0,0
대신119안전센터,제주특별자치도 서귀포시 서호남로 20(법환동),제주특별자치도 서귀포시 서호남로 20(법환동),0,0
동홍119안전센터,제주특별자치도 서귀포시 서홍로 14(서홍동),제주특별자치도 서귀포시 서홍로 14(서홍동),0,0
중문119안전센터,제주특별자치도 서귀포시 일주서로 669(회수동),제주특별자치도 서귀포시 일주서로 669(회수동),0,0
효돈119안전센터,제주특별자치도 서귀포시 일주동로 8234(신효동),제주특별자치도 서귀포시 일주동로 8234(신효동),0,0
한림119안전센터,제주특별자치도 제주시 한림읍 한림중앙로 150,제주특별자치도 제주시 한림읍 한림중앙로,33.3972111,126.2724851
애월119안전센터,제주특별자치도 제주시 애월읍 일주서로 6513,제주특별자치도 제주시 애월읍 일주서로,33.467995,126.3594664
대정119안전센터,제주특별자치도 서귀포시 대정읍 일주서로 2717,제주특별자치도 서귀포시 대정읍 일주서로,33.238826,126.2342189
한경119안전센터,제주특별자치도 제주시 한경면 일주서로 4218,제주특별자치도 제주시 한경면 일주서로,33.3565196,126.1874756
안덕119안전센터,제주특별자치도 서귀포시 안덕면 화순서서로 2,제주특별자치도 서귀포시 안덕면 화순서서로,33.2734819,126.3158425
영어교육도시119안전센터,제주특별자치도 서귀포시 대정읍 에듀시티로 238,제주특별자치도 서귀포시 대정읍 에듀시티로,0,0
성산119안전센터,제주특별자치도 서귀포시 성산읍 일주동로 4120번길 7,제주특별자치도 서귀포시 성산읍 일주동로,33.4094625,126.8981539
구좌119안전센터,제주특별자치도 제주시 구좌읍 세화14길 8,제주특별자치도 제주시 구좌읍 세화14길,0,0
조천119안전센터,제주특별자치도 제주시 조천읍 신북로 337,제주특별자치도 제주시 조천읍 신북로,0,0
남원119안전센터,제주특별자치도 서귀포시 남원읍 남원체육관로221번길 23,제주특별자치도 서귀포시 남원읍 남원체육관로221번길,0,0
표선119안전센터,제주특별자치도 서귀포시 표선면 표선관정로 39-16,제주특별자치도 서귀포시 표선면 표선관정로,33.3271893,126.8269136
풍호119안전센터,경상남도 창원시 진해구 진해대로 1101,경상남도 창원시 진해구 진해대로,35.1152242,128.8024887
대흥119안전센터,경상남도 창원시 진해구 백구로 72,경상남도 창원시 진해구 백구로,35.147749,128.661203
이동119안전센터,경상남도 창원시 진해구 충장로 434,경상남도 창원시 진해구 충장로,35.1529806,128.679332
웅동119안전센터,경상남도 창원시 진해구 남의로 11,경상남도 창원시 진해구 남의로,35.1159212,128.7935773
용원119안전센터,경상남도 창원시 진해구 용원로 43,경상남도 창원시 진해구 용원로,35.0995113,128.8144988
소답119안전센터,경상남도 창원시 의창구 의안로44번길 5,경상남도 창원시 의창구 의안로44번길,35.2648069,128.630453
봉곡119안전센터,경상남도 창원시 봉곡동 지귀로 127,경상남도 창원시 봉곡동 지귀로,35.2470663,128.6538904
차룡119안전센터,경상남도 창원시 의창구 창원대로204번길 15,경상남도 창원시 의창구 창원대로204번길,35.2430796,128.6227783
동읍119안전센터,경상남도 창원시 의창구 동읍 동읍로71번길 14-14,경상남도 창원시 의창구 동읍,35.2846792,128.6825452
북면119안전센터,경상남도 창원시 의창구 북면 감계로110번길 54-36,경상남도 창원시 의창구 북면,35.3477739,128.6070741
대산119안전센터,경상남도 창원시 의창구 대산면 봉강가술로 583,경상남도 창원시 의창구 대산면,35.3353597,128.7082539
신월119안전센터,경상남도 창원시 의창구 상남로 165,경상남도 창원시 의창구 상남로,35.2413305,128.6938197
외동119안전센터,경상남도 창원시 성산구 삼동로128번길 19,경상남도 창원시 성산구 삼동로128번길,0,0
가음정119안전센터,경상남도 창원시 성산구 대정로 39,경상남도 창원시 성산구 대정로,35.2117007,128.7054965
대원119안전센터,경상남도 창원시 의창구 두대로55번길 11,경상남도 창원시 의창구 두대로55번길,0,0
웅남119안전센터,경상남도 창원시 성산구 봉양로 406,경상남도 창원시 성산구 봉양로,35.2112422,128.6222694
중앙119안전센터,경상남도 창원시 마산합포구 제2부두로 55,경상남도 창원시 마산합포구 제2부두로,35.1973466,128.5750763
남성119안전센터,경상남도 원시 마산합포구 남성로 114,경상남도 원시 마산합포구 남성로,0,0
삼진119안전센터,경상남도 창원시 마산합포구 진북면 산단1길 29-30,경상남도 창원시 마산합포구 진북면,35.1154999,128.4674489
석전119안전센터,경상남도 창원시 마산회원구 양덕옛1길 62,경상남도 창원시 마산회원구 양덕옛1길,35.2265334,128.574654
양봉119안전센터,경상남도 창원시 마산회원구 자유무역1길 22,경상남도 창원시 마산회원구 자유무역1길,35.2127043,128.5886959
구암119안전센터,경상남도 창원시 마산회원구 팔용로 260,경상남도 창원시 마산회원구 팔용로,35.2459481,128.5937779
내서119안전센터,경상남도 창원시 마산회원구 내서읍 중리공단로 104,경상남도 창원시 마산회원구 내서읍,35.246768,128.5076326
호계119안전센터,경상남도 창원시 마산회원구 내서읍 호계본동3길 59-10,경상남도 창원시 마산회원구 내서읍,35.246768,128.5076326
구산119안전센터,경상남도 창원시 마산합포구 구산면 해양관광로 1401,경상남도 창원시 마산합포구 구산면,35.1196949,128.5807939